{"GQC00914727":{"lat":13.3522,"lon":144.7669,"name":"PIRATES COVE, GU GQ","country":"US","source":"NOAA 1991-2020 normals"},"RMC00914487":{"lat":6.0833,"lon":171.7333,"name":"MILI, MH RM","country":"US","source":"NOAA 1991-2020 normals"},"RQ1PRAC0001":{"lat":18.4414,"lon":-66.6589,"name":"ARECIBO 5.2 ESE, PR RQ","country":"US","source":"NOAA 1991-2020 normals"},"RQ1PRJD0002":{"lat":18.0281,"lon":-66.5383,"name":"JUANA DIAZ 2.9 SW, PR RQ","country":"US","source":"NOAA 1991-2020 normals"},"RQ1PRJN0001":{"lat":18.2228,"lon":-65.9161,"name":"JUNCOS 0.3 WSW, PR RQ","country":"US","source":"NOAA 1991-2020 normals"},"RQ1PRMY0005":{"lat":18.217,"lon":-67.1167,"name":"MAYAGUEZ ARRIBA, PR RQ","country":"US","source":"NOAA 1991-2020 normals"},"RQ1PRPC0004":{"lat":18.0474,"lon":-66.6514,"name":"PONCE 5.0 NNW, PR RQ","country":"US","source":"NOAA 1991-2020 normals"},"RQ1PRRN0003":{"lat":18.3627,"lon":-67.2497,"name":"RINCON 1.5 N, PR RQ","country":"US","source":"NOAA 1991-2020 normals"},"RQ1PRRN0004":{"lat":18.3188,"lon":-67.2178,"name":"RINCON 2.8 SE, PR RQ","country":"US","source":"NOAA 1991-2020 normals"},"RQC00664331":{"lat":18.2158,"lon":-67.0883,"name":"HACIENDA CONSTANZA 2W, PR RQ","country":"US","source":"NOAA 1991-2020 normals"},"RQC00664614":{"lat":18.1506,"lon":-66.7719,"name":"HUMACAO NATURAL RESERVE, PR RQ","country":"US","source":"NOAA 1991-2020 normals"},"RQC00666343":{"lat":18.2972,"lon":-65.29,"name":"CULEBRA HILL, PR RQ","country":"US","source":"NOAA 1991-2020 normals"},"RQC00666725":{"lat":18.3169,"lon":-65.8664,"name":"PALMA SOLA, PR RQ","country":"US","source":"NOAA 1991-2020 normals"},"US10adam004":{"lat":40.4798,"lon":-98.4026,"name":"AYR 3.5 NE, NE US","country":"US","source":"NOAA 1991-2020 normals"},"US10adam008":{"lat":40.4953,"lon":-98.2973,"name":"GLENVIL 2.3 WSW, NE US","country":"US","source":"NOAA 1991-2020 normals"},"US10adam010":{"lat":40.5532,"lon":-98.6297,"name":"JUNIATA 6.9 WSW, NE US","country":"US","source":"NOAA 1991-2020 normals"},"US10adam051":{"lat":40.4166,"lon":-98.5341,"name":"ROSELAND 3.9 SSE, NE US","country":"US","source":"NOAA 1991-2020 normals"},"US10adam056":{"lat":40.58,"lon":-98.3717,"name":"HASTINGS 1.0 ESE, NE US","country":"US","source":"NOAA 1991-2020 normals"},"US10boon005":{"lat":41.6402,"lon":-97.9951,"name":"ALBION 3.5 S, NE US","country":"US","source":"NOAA 1991-2020 normals"},"US10boon010":{"lat":41.6689,"lon":-98.1166,"name":"ALBION 6.1 W, NE US","country":"US","source":"NOAA 1991-2020 normals"},"US10box_001":{"lat":42.1911,"lon":-102.9518,"name":"ALLIANCE 7.4 NW, NE US","country":"US","source":"NOAA 1991-2020 normals"},"US10buff002":{"lat":40.7062,"lon":-99.1142,"name":"KEARNEY 1.8 WNW, NE US","country":"US","source":"NOAA 1991-2020 normals"},"US10buff006":{"lat":40.9223,"lon":-99.3868,"name":"MILLER 0.5 SE, NE US","country":"US","source":"NOAA 1991-2020 normals"},"US10buff007":{"lat":40.9903,"lon":-98.8699,"name":"RAVENNA 3.3 SE, NE US","country":"US","source":"NOAA 1991-2020 normals"},"US10buff008":{"lat":40.9593,"lon":-98.9631,"name":"RAVENNA 5.3 SW, NE US","country":"US","source":"NOAA 1991-2020 normals"},"US10buff036":{"lat":40.7853,"lon":-99.1653,"name":"RIVERDALE 0.2 WNW, NE US","country":"US","source":"NOAA 1991-2020 normals"},"US10burt002":{"lat":41.6965,"lon":-96.3619,"name":"CRAIG 6.2 S, NE US","country":"US","source":"NOAA 1991-2020 normals"},"US10butl005":{"lat":41.185,"lon":-97.2542,"name":"RISING CITY 2.4 ESE, NE US","country":"US","source":"NOAA 1991-2020 normals"},"US10butl008":{"lat":41.158,"lon":-96.9952,"name":"BRAINARD 1.8 SSE, NE US","country":"US","source":"NOAA 1991-2020 normals"},"US10butl011":{"lat":41.3221,"lon":-97.3465,"name":"BELLWOOD 5.8 W, NE US","country":"US","source":"NOAA 1991-2020 normals"},"US10cass001":{"lat":40.9946,"lon":-95.8976,"name":"PLATTSMOUTH 1.4 SW, NE US","country":"US","source":"NOAA 1991-2020 normals"},"US10ceda002":{"lat":42.7652,"lon":-97.3027,"name":"ST. HELENA 4.1 SW, NE US","country":"US","source":"NOAA 1991-2020 normals"},"US10ceda009":{"lat":42.5654,"lon":-97.1363,"name":"COLERIDGE 5.4 NE, NE US","country":"US","source":"NOAA 1991-2020 normals"},"US10chas011":{"lat":40.5667,"lon":-101.7244,"name":"IMPERIAL 5.4 WNW, NE US","country":"US","source":"NOAA 1991-2020 normals"},"US10chas012":{"lat":40.4836,"lon":-101.9051,"name":"CHAMPION 8.3 W, NE US","country":"US","source":"NOAA 1991-2020 normals"},"US10chas028":{"lat":40.4688,"lon":-101.541,"name":"ENDERS 1.0 NNW, NE US","country":"US","source":"NOAA 1991-2020 normals"},"US10cher005":{"lat":42.872,"lon":-100.5448,"name":"VALENTINE 0.4 E, NE US","country":"US","source":"NOAA 1991-2020 normals"},"US10cher018":{"lat":42.9955,"lon":-101.7119,"name":"MERRIMAN 5.3 N, NE US","country":"US","source":"NOAA 1991-2020 normals"},"US10cher024":{"lat":42.82,"lon":-101.2825,"name":"CODY 8.2 SSW, NE US","country":"US","source":"NOAA 1991-2020 normals"},"US10cher027":{"lat":42.8978,"lon":-101.2733,"name":"CODY 3.0 SW, NE US","country":"US","source":"NOAA 1991-2020 normals"},"US10cher028":{"lat":42.8151,"lon":-101.613,"name":"CODY 20.9 WSW, NE US","country":"US","source":"NOAA 1991-2020 normals"},"US10cher032":{"lat":42.6638,"lon":-100.6651,"name":"VALENTINE 15.6 SSW, NE US","country":"US","source":"NOAA 1991-2020 normals"},"US10chey019":{"lat":41.3264,"lon":-102.9948,"name":"GURLEY 1.3 W, NE US","country":"US","source":"NOAA 1991-2020 normals"},"US10chey021":{"lat":41.1554,"lon":-102.9844,"name":"SIDNEY 0.9 NNW, NE US","country":"US","source":"NOAA 1991-2020 normals"},"US10chey028":{"lat":41.0317,"lon":-102.9277,"name":"SIDNEY 8.1 SSE, NE US","country":"US","source":"NOAA 1991-2020 normals"},"US10chey032":{"lat":41.0675,"lon":-102.6314,"name":"LODGEPOLE 5.7 S, NE US","country":"US","source":"NOAA 1991-2020 normals"},"US10chey037":{"lat":41.0622,"lon":-103.2221,"name":"SIDNEY 14.1 WSW, NE US","country":"US","source":"NOAA 1991-2020 normals"},"US10chey046":{"lat":41.189,"lon":-103.2204,"name":"POTTER 5.4 ESE, NE US","country":"US","source":"NOAA 1991-2020 normals"},"US10chey049":{"lat":41.0492,"lon":-103.1975,"name":"SIDNEY 13.1 WSW, NE US","country":"US","source":"NOAA 1991-2020 normals"},"US10clay004":{"lat":40.5318,"lon":-98.107,"name":"CLAY CENTER 2.8 W, NE US","country":"US","source":"NOAA 1991-2020 normals"},"US10clay008":{"lat":40.4549,"lon":-98.0329,"name":"CLAY CENTER 4.8 SSE, NE US","country":"US","source":"NOAA 1991-2020 normals"},"US10clay009":{"lat":40.6115,"lon":-98.2773,"name":"HASTINGS 6.1 ENE, NE US","country":"US","source":"NOAA 1991-2020 normals"},"US10clay029":{"lat":40.4086,"lon":-98.1087,"name":"FAIRFIELD 1.6 S, NE US","country":"US","source":"NOAA 1991-2020 normals"},"US10colf001":{"lat":41.7014,"lon":-97.0731,"name":"CLARKSON 3.1 ESE, NE US","country":"US","source":"NOAA 1991-2020 normals"},"US10colf003":{"lat":41.596,"lon":-97.1614,"name":"CLARKSON 9.3 SSW, NE US","country":"US","source":"NOAA 1991-2020 normals"},"US10cumi003":{"lat":41.8664,"lon":-96.7995,"name":"WEST POINT 5.0 WNW, NE US","country":"US","source":"NOAA 1991-2020 normals"},"US10cumi008":{"lat":41.9301,"lon":-96.8078,"name":"BEEMER 0.2 E, NE US","country":"US","source":"NOAA 1991-2020 normals"},"US10cumi012":{"lat":42.0149,"lon":-96.5756,"name":"BANCROFT 0.2 NW, NE US","country":"US","source":"NOAA 1991-2020 normals"},"US10cust005":{"lat":41.2685,"lon":-99.5322,"name":"BERWYN 5.9 SSW, NE US","country":"US","source":"NOAA 1991-2020 normals"},"US10cust010":{"lat":41.1759,"lon":-99.6131,"name":"EDDYVILLE 11.4 N, NE US","country":"US","source":"NOAA 1991-2020 normals"},"US10cust012":{"lat":41.6293,"lon":-99.9052,"name":"ANSELMO 2.2 WNW, NE US","country":"US","source":"NOAA 1991-2020 normals"},"US10cust015":{"lat":41.7171,"lon":-99.9848,"name":"ANSELMO 9.2 NW, NE US","country":"US","source":"NOAA 1991-2020 normals"},"US10cust021":{"lat":41.4517,"lon":-99.9745,"name":"MERNA 11.4 W, NE US","country":"US","source":"NOAA 1991-2020 normals"},"US10cust022":{"lat":41.409,"lon":-99.4638,"name":"BERWYN 4.4 NNE, NE US","country":"US","source":"NOAA 1991-2020 normals"},"US10cust039":{"lat":41.2888,"lon":-99.9237,"name":"CALLAWAY 0.2 S, NE US","country":"US","source":"NOAA 1991-2020 normals"},"US10cust045":{"lat":41.412,"lon":-99.6378,"name":"BROKEN BOW 0.7 N, NE US","country":"US","source":"NOAA 1991-2020 normals"},"US10dawe006":{"lat":42.6675,"lon":-103.2848,"name":"CRAWFORD 6.8 E, NE US","country":"US","source":"NOAA 1991-2020 normals"},"US10dawe010":{"lat":42.6256,"lon":-102.8125,"name":"HAY SPRINGS 7.5 WSW, NE US","country":"US","source":"NOAA 1991-2020 normals"},"US10dawe017":{"lat":42.4672,"lon":-103.145,"name":"MARSLAND 8.2 E, NE US","country":"US","source":"NOAA 1991-2020 normals"},"US10daws002":{"lat":40.78,"lon":-99.72,"name":"LEXINGTON 1.1 E, NE US","country":"US","source":"NOAA 1991-2020 normals"},"US10daws010":{"lat":40.9455,"lon":-99.5599,"name":"SUMNER 2.7 W, NE US","country":"US","source":"NOAA 1991-2020 normals"},"US10daws017":{"lat":40.8715,"lon":-99.981,"name":"COZAD 0.9 NNE, NE US","country":"US","source":"NOAA 1991-2020 normals"},"US10deue004":{"lat":41.1496,"lon":-102.3234,"name":"CHAPPELL 8.7 ENE, NE US","country":"US","source":"NOAA 1991-2020 normals"},"US10deue015":{"lat":41.0025,"lon":-102.241,"name":"BIG SPRINGS 9.6 WSW, NE US","country":"US","source":"NOAA 1991-2020 normals"},"US10doug006":{"lat":41.2658,"lon":-95.9927,"name":"OMAHA 2.9 W, NE US","country":"US","source":"NOAA 1991-2020 normals"},"US10doug025":{"lat":41.3639,"lon":-96.1558,"name":"BENNINGTON 0.1 ESE, NE US","country":"US","source":"NOAA 1991-2020 normals"},"US10doug059":{"lat":41.206,"lon":-96.1812,"name":"OMAHA 13.2 WSW, NE US","country":"US","source":"NOAA 1991-2020 normals"},"US10dund010":{"lat":40.1177,"lon":-101.7821,"name":"PARKS 6.0 NW, NE US","country":"US","source":"NOAA 1991-2020 normals"},"US10dund011":{"lat":40.1548,"lon":-101.4734,"name":"MAX 4.6 WNW, NE US","country":"US","source":"NOAA 1991-2020 normals"},"US10dund014":{"lat":40.0757,"lon":-101.5947,"name":"BENKELMAN 3.7 WNW, NE US","country":"US","source":"NOAA 1991-2020 normals"},"US10dund023":{"lat":40.12,"lon":-101.7334,"name":"PARKS 5.4 N, NE US","country":"US","source":"NOAA 1991-2020 normals"},"US10fill002":{"lat":40.634,"lon":-97.5841,"name":"FAIRMONT 0.2 SSE, NE US","country":"US","source":"NOAA 1991-2020 normals"},"US10fill005":{"lat":40.5402,"lon":-97.672,"name":"GENEVA 4.1 W, NE US","country":"US","source":"NOAA 1991-2020 normals"},"US10fill006":{"lat":40.4067,"lon":-97.3739,"name":"TOBIAS 2.1 WSW, NE US","country":"US","source":"NOAA 1991-2020 normals"},"US10fill014":{"lat":40.5357,"lon":-97.4347,"name":"MILLIGAN 3.5 NW, NE US","country":"US","source":"NOAA 1991-2020 normals"},"US10fran002":{"lat":40.2732,"lon":-99.0295,"name":"HILDRETH 4.5 SSE, NE US","country":"US","source":"NOAA 1991-2020 normals"},"US10fran015":{"lat":40.0999,"lon":-98.9228,"name":"FRANKLIN 1.5 ENE, NE US","country":"US","source":"NOAA 1991-2020 normals"},"US10fron007":{"lat":40.6595,"lon":-100.6237,"name":"MAYWOOD 0.1 NNW, NE US","country":"US","source":"NOAA 1991-2020 normals"},"US10fron010":{"lat":40.6901,"lon":-100.0995,"name":"EUSTIS 4.1 WNW, NE US","country":"US","source":"NOAA 1991-2020 normals"},"US10fron017":{"lat":40.3882,"lon":-100.1712,"name":"CAMBRIDGE 7.3 N, NE US","country":"US","source":"NOAA 1991-2020 normals"},"US10furn008":{"lat":40.0887,"lon":-99.892,"name":"BEAVER CITY 4.7 SW, NE US","country":"US","source":"NOAA 1991-2020 normals"},"US10furn014":{"lat":40.133,"lon":-99.8238,"name":"BEAVER CITY 0.4 SE, NE US","country":"US","source":"NOAA 1991-2020 normals"},"US10furn015":{"lat":40.2463,"lon":-99.9516,"name":"ARAPAHOE 4.8 SW, NE US","country":"US","source":"NOAA 1991-2020 normals"},"US10gage003":{"lat":40.0525,"lon":-96.5774,"name":"BARNESTON 0.3 N, NE US","country":"US","source":"NOAA 1991-2020 normals"},"US10gage009":{"lat":40.0086,"lon":-96.7029,"name":"WYMORE 8.1 SSW, NE US","country":"US","source":"NOAA 1991-2020 normals"},"US10gage013":{"lat":40.2911,"lon":-96.5367,"name":"FILLEY 0.4 NNW, NE US","country":"US","source":"NOAA 1991-2020 normals"},"US10gage020":{"lat":40.377,"lon":-96.9086,"name":"DEWITT 1.4 SE, NE US","country":"US","source":"NOAA 1991-2020 normals"},"US10gage022":{"lat":40.118,"lon":-96.879,"name":"DILLER 3.0 E, NE US","country":"US","source":"NOAA 1991-2020 normals"},"US10gard010":{"lat":41.9762,"lon":-102.3879,"name":"LAKESIDE 5.8 SSE, NE US","country":"US","source":"NOAA 1991-2020 normals"},"US10garf009":{"lat":41.7533,"lon":-99.1485,"name":"BURWELL 2.1 SSW, NE US","country":"US","source":"NOAA 1991-2020 normals"},"US10gosp002":{"lat":40.4379,"lon":-99.8351,"name":"ARAPAHOE 9.8 NNE, NE US","country":"US","source":"NOAA 1991-2020 normals"},"US10gosp006":{"lat":40.4087,"lon":-99.6633,"name":"BERTRAND 8.3 SSW, NE US","country":"US","source":"NOAA 1991-2020 normals"},"US10gree007":{"lat":41.6869,"lon":-98.3657,"name":"SPALDING 0.2 SW, NE US","country":"US","source":"NOAA 1991-2020 normals"},"US10gree010":{"lat":41.582,"lon":-98.6543,"name":"SCOTIA 8.4 NNE, NE US","country":"US","source":"NOAA 1991-2020 normals"},"US10hall001":{"lat":40.9294,"lon":-98.3767,"name":"GRAND ISLAND 1.8 W, NE US","country":"US","source":"NOAA 1991-2020 normals"},"US10hall004":{"lat":40.8585,"lon":-98.3781,"name":"GRAND ISLAND 5.0 SSW, NE US","country":"US","source":"NOAA 1991-2020 normals"},"US10hall005":{"lat":40.7874,"lon":-98.3029,"name":"DONIPHAN 3.7 ENE, NE US","country":"US","source":"NOAA 1991-2020 normals"},"US10hall007":{"lat":41.018,"lon":-98.3042,"name":"GRAND ISLAND 6.7 NNE, NE US","country":"US","source":"NOAA 1991-2020 normals"},"US10hall008":{"lat":40.8229,"lon":-98.5984,"name":"WOOD RIVER 0.2 NNE, NE US","country":"US","source":"NOAA 1991-2020 normals"},"US10hall009":{"lat":40.7734,"lon":-98.4137,"name":"DONIPHAN 2.3 W, NE US","country":"US","source":"NOAA 1991-2020 normals"},"US10hall011":{"lat":41.0018,"lon":-98.6143,"name":"CAIRO 0.3 W, NE US","country":"US","source":"NOAA 1991-2020 normals"},"US10hall018":{"lat":40.7859,"lon":-98.6834,"name":"WOOD RIVER 4.9 WSW, NE US","country":"US","source":"NOAA 1991-2020 normals"},"US10hami002":{"lat":40.8863,"lon":-97.8748,"name":"HAMPTON 0.8 ENE, NE US","country":"US","source":"NOAA 1991-2020 normals"},"US10harl004":{"lat":40.1765,"lon":-99.5579,"name":"ORLEANS 6.2 WNW, NE US","country":"US","source":"NOAA 1991-2020 normals"},"US10harl008":{"lat":40.0983,"lon":-99.3626,"name":"ALMA 0.1 NNW, NE US","country":"US","source":"NOAA 1991-2020 normals"},"US10harl010":{"lat":40.1273,"lon":-99.5572,"name":"STAMFORD 1.9 E, NE US","country":"US","source":"NOAA 1991-2020 normals"},"US10harl012":{"lat":40.3073,"lon":-99.3492,"name":"HOLDREGE 9.2 S, NE US","country":"US","source":"NOAA 1991-2020 normals"},"US10harl014":{"lat":40.129,"lon":-99.4512,"name":"ORLEANS 0.2 E, NE US","country":"US","source":"NOAA 1991-2020 normals"},"US10haye004":{"lat":40.3999,"lon":-101.2766,"name":"WAUNETA 5.1 E, NE US","country":"US","source":"NOAA 1991-2020 normals"},"US10haye012":{"lat":40.3725,"lon":-101.0376,"name":"PALISADE 4.0 ENE, NE US","country":"US","source":"NOAA 1991-2020 normals"},"US10hitc004":{"lat":40.0882,"lon":-100.7859,"name":"CULBERTSON 10.1 SSE, NE US","country":"US","source":"NOAA 1991-2020 normals"},"US10hitc022":{"lat":40.2556,"lon":-101.277,"name":"STRATTON 7.9 NNW, NE US","country":"US","source":"NOAA 1991-2020 normals"},"US10holt001":{"lat":42.4604,"lon":-98.6583,"name":"ONEILL 0.6 WNW, NE US","country":"US","source":"NOAA 1991-2020 normals"},"US10holt024":{"lat":42.7982,"lon":-98.6506,"name":"SPENCER 5.9 SE, NE US","country":"US","source":"NOAA 1991-2020 normals"},"US10hook001":{"lat":42.0437,"lon":-101.0391,"name":"MULLEN 0.2 ENE, NE US","country":"US","source":"NOAA 1991-2020 normals"},"US10hook002":{"lat":41.9258,"lon":-101.146,"name":"MULLEN 9.7 SW, NE US","country":"US","source":"NOAA 1991-2020 normals"},"US10hook007":{"lat":42.162,"lon":-100.6148,"name":"THEDFORD 23 N, NE US","country":"US","source":"NOAA 1991-2020 normals"},"US10howa005":{"lat":41.122,"lon":-98.5533,"name":"DANNEBROG 0.4 WNW, NE US","country":"US","source":"NOAA 1991-2020 normals"},"US10howa007":{"lat":41.3219,"lon":-98.3255,"name":"WOLBACH 6.3 SE, NE US","country":"US","source":"NOAA 1991-2020 normals"},"US10howa009":{"lat":41.323,"lon":-98.7126,"name":"ELBA 8.0 WNW, NE US","country":"US","source":"NOAA 1991-2020 normals"},"US10jeff002":{"lat":40.082,"lon":-97.3306,"name":"FAIRBURY 8.7 WSW, NE US","country":"US","source":"NOAA 1991-2020 normals"},"US10jeff003":{"lat":40.2669,"lon":-97.3169,"name":"FAIRBURY 11.4 NW, NE US","country":"US","source":"NOAA 1991-2020 normals"},"US10jeff009":{"lat":40.0599,"lon":-97.0435,"name":"STEELE CITY 1.8 NW, NE US","country":"US","source":"NOAA 1991-2020 normals"},"US10jeff012":{"lat":40.3318,"lon":-96.9568,"name":"DEWITT 4.6 SSW, NE US","country":"US","source":"NOAA 1991-2020 normals"},"US10jeff014":{"lat":40.3073,"lon":-97.3119,"name":"DAYKIN 1.2 SW, NE US","country":"US","source":"NOAA 1991-2020 normals"},"US10john001":{"lat":40.3776,"lon":-96.1679,"name":"TECUMSEH 1.7 ENE, NE US","country":"US","source":"NOAA 1991-2020 normals"},"US10john002":{"lat":40.4644,"lon":-96.2337,"name":"COOK 4.0 SW, NE US","country":"US","source":"NOAA 1991-2020 normals"},"US10john005":{"lat":40.4431,"lon":-96.3216,"name":"STERLING 3.1 ESE, NE US","country":"US","source":"NOAA 1991-2020 normals"},"US10john015":{"lat":40.3777,"lon":-96.3155,"name":"TECUMSEH 6.3 W, NE US","country":"US","source":"NOAA 1991-2020 normals"},"US10john021":{"lat":40.3123,"lon":-96.146,"name":"ELK CREEK 2.0 NNW, NE US","country":"US","source":"NOAA 1991-2020 normals"},"US10keit013":{"lat":41.1089,"lon":-101.8264,"name":"BRULE 3.4 ENE, NE US","country":"US","source":"NOAA 1991-2020 normals"},"US10keit014":{"lat":41.1638,"lon":-101.3071,"name":"PAXTON 3.8 NE, NE US","country":"US","source":"NOAA 1991-2020 normals"},"US10keit015":{"lat":41.1361,"lon":-101.719,"name":"OGALLALA 0.6 N, NE US","country":"US","source":"NOAA 1991-2020 normals"},"US10keit018":{"lat":41.2119,"lon":-101.8374,"name":"BRULE 8.6 NNE, NE US","country":"US","source":"NOAA 1991-2020 normals"},"US10kimb021":{"lat":41.2296,"lon":-103.8541,"name":"KIMBALL 10.0 W, NE US","country":"US","source":"NOAA 1991-2020 normals"},"US10knox004":{"lat":42.7382,"lon":-97.4985,"name":"CROFTON 0.7 NNW, NE US","country":"US","source":"NOAA 1991-2020 normals"},"US10knox018":{"lat":42.7661,"lon":-97.5637,"name":"CROFTON 4.4 WNW, NE US","country":"US","source":"NOAA 1991-2020 normals"},"US10lanc001":{"lat":40.7633,"lon":-96.6833,"name":"LINCOLN 2.7 SSW, NE US","country":"US","source":"NOAA 1991-2020 normals"},"US10lanc007":{"lat":41.0032,"lon":-96.6763,"name":"DAVEY 1.2 NNW, NE US","country":"US","source":"NOAA 1991-2020 normals"},"US10lanc012":{"lat":40.7544,"lon":-96.7611,"name":"LINCOLN 5.8 WSW, NE US","country":"US","source":"NOAA 1991-2020 normals"},"US10lanc013":{"lat":40.8416,"lon":-96.5141,"name":"LINCOLN 8.5 ENE, NE US","country":"US","source":"NOAA 1991-2020 normals"},"US10lanc015":{"lat":40.5847,"lon":-96.4922,"name":"PANAMA 1.3 SE, NE US","country":"US","source":"NOAA 1991-2020 normals"},"US10lanc043":{"lat":40.779,"lon":-96.6473,"name":"LINCOLN 1.8 SE, NE US","country":"US","source":"NOAA 1991-2020 normals"},"US10lanc067":{"lat":40.7889,"lon":-96.7413,"name":"LINCOLN 3.9 W, NE US","country":"US","source":"NOAA 1991-2020 normals"},"US10linc004":{"lat":41.221,"lon":-101.0835,"name":"HERSHEY 6.0 NW, NE US","country":"US","source":"NOAA 1991-2020 normals"},"US10linc033":{"lat":41.1675,"lon":-101.1375,"name":"SUTHERLAND 0.9 NW, NE US","country":"US","source":"NOAA 1991-2020 normals"},"US10linc047":{"lat":40.8603,"lon":-100.7018,"name":"WELLFLEET 7.6 NNE, NE US","country":"US","source":"NOAA 1991-2020 normals"},"US10linc051":{"lat":40.7292,"lon":-101.1292,"name":"WALLACE 7.8 SSE, NE US","country":"US","source":"NOAA 1991-2020 normals"},"US10loga005":{"lat":41.4078,"lon":-100.3959,"name":"STAPLETON 7.9 ESE, NE US","country":"US","source":"NOAA 1991-2020 normals"},"US10madi001":{"lat":42.0484,"lon":-97.3999,"name":"NORFOLK 1.7 NE, NE US","country":"US","source":"NOAA 1991-2020 normals"},"US10merr006":{"lat":41.2047,"lon":-97.9454,"name":"CENTRAL CITY 6.8 NNE, NE US","country":"US","source":"NOAA 1991-2020 normals"},"US10merr009":{"lat":41.102,"lon":-98.2847,"name":"ST. LIBORY 4.0 ENE, NE US","country":"US","source":"NOAA 1991-2020 normals"},"US10morr003":{"lat":41.9386,"lon":-103.2463,"name":"BAYARD 13.5 NNE, NE US","country":"US","source":"NOAA 1991-2020 normals"},"US10morr004":{"lat":41.4538,"lon":-102.7852,"name":"DALTON 10.4 ENE, NE US","country":"US","source":"NOAA 1991-2020 normals"},"US10morr007":{"lat":41.4759,"lon":-102.8713,"name":"BROADWATER 8.4 S, NE US","country":"US","source":"NOAA 1991-2020 normals"},"US10nanc001":{"lat":41.4246,"lon":-97.7717,"name":"GENOA 2.7 WSW, NE US","country":"US","source":"NOAA 1991-2020 normals"},"US10nanc003":{"lat":41.3315,"lon":-98.1584,"name":"PALMER 9.2 NE, NE US","country":"US","source":"NOAA 1991-2020 normals"},"US10nema002":{"lat":40.3956,"lon":-95.6601,"name":"BROWNVILLE 0.2 SW, NE US","country":"US","source":"NOAA 1991-2020 normals"},"US10nema009":{"lat":40.4057,"lon":-95.9664,"name":"JOHNSON 1.7 E, NE US","country":"US","source":"NOAA 1991-2020 normals"},"US10nema010":{"lat":40.4797,"lon":-95.9599,"name":"BROCK 0.0 SSE, NE US","country":"US","source":"NOAA 1991-2020 normals"},"US10nuck002":{"lat":40.1828,"lon":-97.9717,"name":"NORA 1.5 N, NE US","country":"US","source":"NOAA 1991-2020 normals"},"US10nuck004":{"lat":40.288,"lon":-98.2581,"name":"LAWRENCE 0.3 SSE, NE US","country":"US","source":"NOAA 1991-2020 normals"},"US10nuck016":{"lat":40.1094,"lon":-98.1801,"name":"SUPERIOR 8.4 NW, NE US","country":"US","source":"NOAA 1991-2020 normals"},"US10nuck017":{"lat":40.0167,"lon":-97.8457,"name":"HARDY 4.3 E, NE US","country":"US","source":"NOAA 1991-2020 normals"},"US10otoe005":{"lat":40.5233,"lon":-96.1657,"name":"COOK 0.9 N, NE US","country":"US","source":"NOAA 1991-2020 normals"},"US10otoe007":{"lat":40.5525,"lon":-96.108,"name":"COOK 3.0 NORTH, NE US","country":"US","source":"NOAA 1991-2020 normals"},"US10otoe009":{"lat":40.6564,"lon":-96.2243,"name":"SYRACUSE 2.0 W, NE US","country":"US","source":"NOAA 1991-2020 normals"},"US10pawn013":{"lat":40.2065,"lon":-96.2944,"name":"STEINAUER 3.1 W, NE US","country":"US","source":"NOAA 1991-2020 normals"},"US10perk009":{"lat":40.8064,"lon":-101.7277,"name":"GRANT 2.5 S, NE US","country":"US","source":"NOAA 1991-2020 normals"},"US10perk021":{"lat":40.7981,"lon":-101.4038,"name":"ELSIE 3.5 SSW, NE US","country":"US","source":"NOAA 1991-2020 normals"},"US10perk023":{"lat":40.7571,"lon":-101.6272,"name":"MADRID 7.8 SW, NE US","country":"US","source":"NOAA 1991-2020 normals"},"US10perk037":{"lat":40.8492,"lon":-101.7244,"name":"GRANT 0.5 NNE, NE US","country":"US","source":"NOAA 1991-2020 normals"},"US10phel001":{"lat":40.3797,"lon":-99.1797,"name":"WILCOX 1.1 NNW, NE US","country":"US","source":"NOAA 1991-2020 normals"},"US10phel003":{"lat":40.6426,"lon":-99.275,"name":"FUNK 12.5 N, NE US","country":"US","source":"NOAA 1991-2020 normals"},"US10pier007":{"lat":42.2342,"lon":-97.5104,"name":"PIERCE 2.6 NNE, NE US","country":"US","source":"NOAA 1991-2020 normals"},"US10pier008":{"lat":42.2214,"lon":-97.6994,"name":"PIERCE 9.1 W, NE US","country":"US","source":"NOAA 1991-2020 normals"},"US10plat001":{"lat":41.3878,"lon":-97.4313,"name":"COLUMBUS 4.3 SW, NE US","country":"US","source":"NOAA 1991-2020 normals"},"US10plat023":{"lat":41.6142,"lon":-97.5231,"name":"HUMPHREY 5.7 SSW, NE US","country":"US","source":"NOAA 1991-2020 normals"},"US10polk001":{"lat":41.113,"lon":-97.5828,"name":"STROMSBURG 0.9 E, NE US","country":"US","source":"NOAA 1991-2020 normals"},"US10polk012":{"lat":41.2359,"lon":-97.5051,"name":"OSCEOLA 4.5 NE, NE US","country":"US","source":"NOAA 1991-2020 normals"},"US10polk020":{"lat":41.1959,"lon":-97.6828,"name":"OSCEOLA 7.1 W, NE US","country":"US","source":"NOAA 1991-2020 normals"},"US10red_005":{"lat":40.2562,"lon":-100.4494,"name":"INDIANOLA 2.2 NW, NE US","country":"US","source":"NOAA 1991-2020 normals"},"US10red_011":{"lat":40.023,"lon":-100.5626,"name":"MCCOOK 12.8 SSE, NE US","country":"US","source":"NOAA 1991-2020 normals"},"US10red_014":{"lat":40.238,"lon":-100.7522,"name":"CULBERTSON 4.5 E, NE US","country":"US","source":"NOAA 1991-2020 normals"},"US10red_015":{"lat":40.3302,"lon":-100.2865,"name":"CAMBRIDGE 3.5 N, NE US","country":"US","source":"NOAA 1991-2020 normals"},"US10red_019":{"lat":40.265,"lon":-100.6531,"name":"MCCOOK 4.6 NNW, NE US","country":"US","source":"NOAA 1991-2020 normals"},"US10rich001":{"lat":40.1399,"lon":-95.9726,"name":"HUMBOLDT 2.2 SW, NE US","country":"US","source":"NOAA 1991-2020 normals"},"US10rich003":{"lat":40.0997,"lon":-95.8073,"name":"DAWSON 2.5 SE, NE US","country":"US","source":"NOAA 1991-2020 normals"},"US10rich005":{"lat":40.2292,"lon":-95.963,"name":"HUMBOLDT 4.6 NNW, NE US","country":"US","source":"NOAA 1991-2020 normals"},"US10rich007":{"lat":40.1164,"lon":-95.5256,"name":"FALLS CITY 5.5 NE, NE US","country":"US","source":"NOAA 1991-2020 normals"},"US10rich017":{"lat":40.0225,"lon":-95.7883,"name":"VERDON 9.5 SSW, NE US","country":"US","source":"NOAA 1991-2020 normals"},"US10sali002":{"lat":40.6908,"lon":-97.0265,"name":"MILFORD 5.9 SSE, NE US","country":"US","source":"NOAA 1991-2020 normals"},"US10sali016":{"lat":40.6261,"lon":-97.1392,"name":"DORCHESTER 2.1 NW, NE US","country":"US","source":"NOAA 1991-2020 normals"},"US10sarp006":{"lat":41.1056,"lon":-95.9386,"name":"BELLEVUE 3.3 WSW, NE US","country":"US","source":"NOAA 1991-2020 normals"},"US10sarp016":{"lat":41.1135,"lon":-95.9648,"name":"BELLEVUE 4.2 WSW, NE US","country":"US","source":"NOAA 1991-2020 normals"},"US10sarp024":{"lat":41.1684,"lon":-96.026,"name":"PAPILLION 1.3 NE, NE US","country":"US","source":"NOAA 1991-2020 normals"},"US10sarp031":{"lat":41.1431,"lon":-96.0597,"name":"PAPILLION 1.2 WSW, NE US","country":"US","source":"NOAA 1991-2020 normals"},"US10sarp039":{"lat":41.1674,"lon":-95.95,"name":"BELLEVUE 3.7 WNW, NE US","country":"US","source":"NOAA 1991-2020 normals"},"US10scot005":{"lat":41.9894,"lon":-103.9365,"name":"SCOTTSBLUFF 16.4 WNW, NE US","country":"US","source":"NOAA 1991-2020 normals"},"US10scot014":{"lat":41.824,"lon":-103.6533,"name":"GERING 0.4 E, NE US","country":"US","source":"NOAA 1991-2020 normals"},"US10sewa004":{"lat":41.019,"lon":-97.2844,"name":"GRESHAM 6.2 E, NE US","country":"US","source":"NOAA 1991-2020 normals"},"US10sewa005":{"lat":40.8157,"lon":-96.9506,"name":"PLEASANT DALE 2.5 NNW, NE US","country":"US","source":"NOAA 1991-2020 normals"},"US10sewa006":{"lat":40.9596,"lon":-97.0415,"name":"SEWARD 4.7 NE, NE US","country":"US","source":"NOAA 1991-2020 normals"},"US10sewa023":{"lat":40.8911,"lon":-97.3456,"name":"UTICA 0.1 SSE, NE US","country":"US","source":"NOAA 1991-2020 normals"},"US10shem003":{"lat":41.1426,"lon":-98.8593,"name":"ROCKVILLE 2.2 NW, NE US","country":"US","source":"NOAA 1991-2020 normals"},"US10shem012":{"lat":41.194,"lon":-99.1407,"name":"LITCHFIELD 13.6 SE, NE US","country":"US","source":"NOAA 1991-2020 normals"},"US10sher023":{"lat":42.874,"lon":-102.5471,"name":"RUSHVILLE 11.6 NNW, NE US","country":"US","source":"NOAA 1991-2020 normals"},"US10sher030":{"lat":42.5082,"lon":-102.7341,"name":"HAY SPRINGS 12.3 SSW, NE US","country":"US","source":"NOAA 1991-2020 normals"},"US10sher031":{"lat":42.7314,"lon":-102.0857,"name":"GORDON 8.0 ESE, NE US","country":"US","source":"NOAA 1991-2020 normals"},"US10sher032":{"lat":42.712,"lon":-102.4637,"name":"RUSHVILLE 0.4 S, NE US","country":"US","source":"NOAA 1991-2020 normals"},"US10sher036":{"lat":42.9591,"lon":-102.3346,"name":"GORDON 12.6 NW, NE US","country":"US","source":"NOAA 1991-2020 normals"},"US10thay006":{"lat":40.0776,"lon":-97.7571,"name":"DESHLER 4.7 SSW, NE US","country":"US","source":"NOAA 1991-2020 normals"},"US10thay007":{"lat":40.2377,"lon":-97.7531,"name":"DAVENPORT 6.0 SE, NE US","country":"US","source":"NOAA 1991-2020 normals"},"US10thay011":{"lat":40.0469,"lon":-97.5767,"name":"CHESTER 3.4 NE, NE US","country":"US","source":"NOAA 1991-2020 normals"},"US10thay018":{"lat":40.171,"lon":-97.5764,"name":"HEBRON 0.6 ENE, NE US","country":"US","source":"NOAA 1991-2020 normals"},"US10vall003":{"lat":41.6335,"lon":-99.0738,"name":"ELYRIA 4.8 SW, NE US","country":"US","source":"NOAA 1991-2020 normals"},"US10vall015":{"lat":41.5983,"lon":-98.9241,"name":"ORD 0.4 SSE, NE US","country":"US","source":"NOAA 1991-2020 normals"},"US10vall018":{"lat":41.6693,"lon":-99.1267,"name":"ELYRIA 6.3 W, NE US","country":"US","source":"NOAA 1991-2020 normals"},"US10wayn002":{"lat":42.2361,"lon":-97.0074,"name":"WAYNE 0.7 ENE, NE US","country":"US","source":"NOAA 1991-2020 normals"},"US10webs009":{"lat":40.2786,"lon":-98.6577,"name":"BLADEN 4.4 SW, NE US","country":"US","source":"NOAA 1991-2020 normals"},"US10webs013":{"lat":40.0891,"lon":-98.4366,"name":"RED CLOUD 4.3 E, NE US","country":"US","source":"NOAA 1991-2020 normals"},"US10webs018":{"lat":40.3362,"lon":-98.3725,"name":"BLUE HILL 4.0 E, NE US","country":"US","source":"NOAA 1991-2020 normals"},"US10york008":{"lat":41.0186,"lon":-97.672,"name":"BENEDICT 3.5 W, NE US","country":"US","source":"NOAA 1991-2020 normals"},"US10york019":{"lat":40.8868,"lon":-97.3948,"name":"WACO 3.6 E, NE US","country":"US","source":"NOAA 1991-2020 normals"},"US10york024":{"lat":40.816,"lon":-97.806,"name":"HENDERSON 2.5 N, NE US","country":"US","source":"NOAA 1991-2020 normals"},"US10york027":{"lat":40.8504,"lon":-97.4069,"name":"WACO 4.3 SE, NE US","country":"US","source":"NOAA 1991-2020 normals"},"US10york034":{"lat":40.751,"lon":-97.5785,"name":"MCCOOL JUNCTION 1.1 ENE, NE US","country":"US","source":"NOAA 1991-2020 normals"},"US1AKAB0021":{"lat":61.3122,"lon":-149.4958,"name":"EAGLE RIVER 2.6 ESE, AK US","country":"US","source":"NOAA 1991-2020 normals"},"US1AKAB0052":{"lat":61.1529,"lon":-149.9346,"name":"ANCHORAGE 4.7 SSW, AK US","country":"US","source":"NOAA 1991-2020 normals"},"US1AKFN0015":{"lat":64.9186,"lon":-147.6304,"name":"FAIRBANKS 5.7 N, AK US","country":"US","source":"NOAA 1991-2020 normals"},"US1AKMS0011":{"lat":61.6185,"lon":-149.1258,"name":"PALMER 1.7 WNW, AK US","country":"US","source":"NOAA 1991-2020 normals"},"US1AKMS0012":{"lat":62.2272,"lon":-150.0731,"name":"TALKEETNA 7.6 S, AK US","country":"US","source":"NOAA 1991-2020 normals"},"US1AKPW0001":{"lat":55.9553,"lon":-133.6178,"name":"EDNA BAY 1.3 E, AK US","country":"US","source":"NOAA 1991-2020 normals"},"US1ALBL0005":{"lat":33.8029,"lon":-86.5601,"name":"SPRINGVILLE 5.3 WNW, AL US","country":"US","source":"NOAA 1991-2020 normals"},"US1ALBL0006":{"lat":34.0913,"lon":-86.6066,"name":"BLOUNTSVILLE 1.3 NW, AL US","country":"US","source":"NOAA 1991-2020 normals"},"US1ALBL0013":{"lat":33.9153,"lon":-86.3464,"name":"ONEONTA 7.5 ESE, AL US","country":"US","source":"NOAA 1991-2020 normals"},"US1ALBL0021":{"lat":34.2305,"lon":-86.4792,"name":"ARAB 7.0 S, AL US","country":"US","source":"NOAA 1991-2020 normals"},"US1ALBW0003":{"lat":30.6424,"lon":-87.9076,"name":"DAPHNE 1.2 NNW, AL US","country":"US","source":"NOAA 1991-2020 normals"},"US1ALBW0004":{"lat":30.622,"lon":-87.9014,"name":"DAPHNE 0.4 SW, AL US","country":"US","source":"NOAA 1991-2020 normals"},"US1ALBW0008":{"lat":30.3439,"lon":-87.7848,"name":"FOLEY 7.4 SW, AL US","country":"US","source":"NOAA 1991-2020 normals"},"US1ALBW0009":{"lat":30.403,"lon":-87.6766,"name":"FOLEY 0.5 ESE, AL US","country":"US","source":"NOAA 1991-2020 normals"},"US1ALBW0013":{"lat":30.5667,"lon":-87.9005,"name":"FAIRHOPE 3.7 NNW, AL US","country":"US","source":"NOAA 1991-2020 normals"},"US1ALBW0026":{"lat":30.6216,"lon":-87.7578,"name":"LOXLEY 0.4 SSW, AL US","country":"US","source":"NOAA 1991-2020 normals"},"US1ALBW0031":{"lat":30.3789,"lon":-87.6975,"name":"FOLEY 2.0 SSW, AL US","country":"US","source":"NOAA 1991-2020 normals"},"US1ALBW0040":{"lat":30.5072,"lon":-87.9083,"name":"FAIRHOPE 1.5 WSW, AL US","country":"US","source":"NOAA 1991-2020 normals"},"US1ALBW0059":{"lat":31.0359,"lon":-87.7413,"name":"BAY MINETTE 10.9 N, AL US","country":"US","source":"NOAA 1991-2020 normals"},"US1ALBW0071":{"lat":30.5166,"lon":-87.8474,"name":"FAIRHOPE 2.2 E, AL US","country":"US","source":"NOAA 1991-2020 normals"},"US1ALCE0001":{"lat":34.4811,"lon":-85.5221,"name":"MENTONE 6.9 SSE, AL US","country":"US","source":"NOAA 1991-2020 normals"},"US1ALCK0003":{"lat":31.6447,"lon":-87.854,"name":"GROVE HILL 6.1 SW, AL US","country":"US","source":"NOAA 1991-2020 normals"},"US1ALCM0003":{"lat":34.1703,"lon":-86.7624,"name":"CULLMAN 4.4 E, AL US","country":"US","source":"NOAA 1991-2020 normals"},"US1ALCM0004":{"lat":34.0656,"lon":-86.7354,"name":"HANCEVILLE 1.6 E, AL US","country":"US","source":"NOAA 1991-2020 normals"},"US1ALCM0006":{"lat":34.1004,"lon":-86.932,"name":"CULLMAN 7.5 SW, AL US","country":"US","source":"NOAA 1991-2020 normals"},"US1ALCT0001":{"lat":34.6224,"lon":-87.7941,"name":"TUSCUMBIA 8.9 SW, AL US","country":"US","source":"NOAA 1991-2020 normals"},"US1ALCT0004":{"lat":34.7293,"lon":-87.6472,"name":"MUSCLE SHOALS 1.3 SSW, AL US","country":"US","source":"NOAA 1991-2020 normals"},"US1ALCT0005":{"lat":34.7655,"lon":-87.6813,"name":"SHEFFIELD 1.3 ENE, AL US","country":"US","source":"NOAA 1991-2020 normals"},"US1ALCT0014":{"lat":34.7754,"lon":-87.4736,"name":"MUSCLE SHOALS 9.7 NNE, AL US","country":"US","source":"NOAA 1991-2020 normals"},"US1ALDK0008":{"lat":34.5346,"lon":-85.7563,"name":"SYLVANIA 3.4 ESE, AL US","country":"US","source":"NOAA 1991-2020 normals"},"US1ALDK0009":{"lat":34.4431,"lon":-85.7159,"name":"FORT PAYNE 1.4 WSW, AL US","country":"US","source":"NOAA 1991-2020 normals"},"US1ALDK0012":{"lat":34.4719,"lon":-85.8429,"name":"RAINSVILLE 1.9 S, AL US","country":"US","source":"NOAA 1991-2020 normals"},"US1ALDK0017":{"lat":34.8092,"lon":-85.595,"name":"FLAT ROCK 6.3 ENE, AL US","country":"US","source":"NOAA 1991-2020 normals"},"US1ALDS0001":{"lat":32.4042,"lon":-87.0546,"name":"SELMA 1.5 WSW, AL US","country":"US","source":"NOAA 1991-2020 normals"},"US1ALEL0004":{"lat":32.5504,"lon":-86.3845,"name":"MILLBROOK 4.0 NNW, AL US","country":"US","source":"NOAA 1991-2020 normals"},"US1ALEL0018":{"lat":32.6784,"lon":-86.1402,"name":"WETUMPKA 9.9 NNE, AL US","country":"US","source":"NOAA 1991-2020 normals"},"US1ALEL0024":{"lat":32.5149,"lon":-86.3851,"name":"MILLBROOK 1.7 NW, AL US","country":"US","source":"NOAA 1991-2020 normals"},"US1ALJC0012":{"lat":34.7345,"lon":-86.21,"name":"WOODVILLE 8.0 NNE, AL US","country":"US","source":"NOAA 1991-2020 normals"},"US1ALJC0016":{"lat":34.6863,"lon":-85.8796,"name":"PISGAH 1.8 W, AL US","country":"US","source":"NOAA 1991-2020 normals"},"US1ALJF0025":{"lat":33.4885,"lon":-86.8923,"name":"FAIRFIELD 1.8 NE, AL US","country":"US","source":"NOAA 1991-2020 normals"},"US1ALJF0037":{"lat":33.379,"lon":-86.9775,"name":"BESSEMER 1.0 WNW, AL US","country":"US","source":"NOAA 1991-2020 normals"},"US1ALJF0047":{"lat":33.3963,"lon":-86.8399,"name":"HOOVER 1.9 NW, AL US","country":"US","source":"NOAA 1991-2020 normals"},"US1ALJF0053":{"lat":33.6523,"lon":-86.6167,"name":"TRUSSVILLE 1.8 NW, AL US","country":"US","source":"NOAA 1991-2020 normals"},"US1ALJF0057":{"lat":33.5121,"lon":-86.7428,"name":"MOUNTAIN BROOK 1.7 N, AL US","country":"US","source":"NOAA 1991-2020 normals"},"US1ALLD0009":{"lat":34.9129,"lon":-87.8829,"name":"CLOVERDALE 6.6 WSW, AL US","country":"US","source":"NOAA 1991-2020 normals"},"US1ALLD0025":{"lat":34.835,"lon":-87.5697,"name":"FLORENCE 5.4 E, AL US","country":"US","source":"NOAA 1991-2020 normals"},"US1ALLE0004":{"lat":32.5949,"lon":-85.4711,"name":"AUBURN 0.6 ENE, AL US","country":"US","source":"NOAA 1991-2020 normals"},"US1ALLE0007":{"lat":32.5844,"lon":-85.593,"name":"AUBURN 6.6 W, AL US","country":"US","source":"NOAA 1991-2020 normals"},"US1ALLS0002":{"lat":34.8044,"lon":-86.8304,"name":"CAPSHAW 3.0 NW, AL US","country":"US","source":"NOAA 1991-2020 normals"},"US1ALLS0023":{"lat":34.7869,"lon":-86.9536,"name":"ATHENS 1.5 SE, AL US","country":"US","source":"NOAA 1991-2020 normals"},"US1ALLS0026":{"lat":34.7098,"lon":-86.8057,"name":"MADISON 3.2 W, AL US","country":"US","source":"NOAA 1991-2020 normals"},"US1ALMB0001":{"lat":30.6079,"lon":-88.2585,"name":"TILLMANS CORNER 4.3 WNW, AL US","country":"US","source":"NOAA 1991-2020 normals"},"US1ALMB0004":{"lat":30.69,"lon":-88.13,"name":"MOBILE 2.6 WNW, AL US","country":"US","source":"NOAA 1991-2020 normals"},"US1ALMB0024":{"lat":30.737,"lon":-88.274,"name":"WILMER 7.9 SE, AL US","country":"US","source":"NOAA 1991-2020 normals"},"US1ALMB0049":{"lat":30.671,"lon":-88.108,"name":"MOBILE 1.2 WSW, AL US","country":"US","source":"NOAA 1991-2020 normals"},"US1ALMB0060":{"lat":30.7363,"lon":-88.1818,"name":"MOBILE 5.0 WNW, AL US","country":"US","source":"NOAA 1991-2020 normals"},"US1ALMB0063":{"lat":30.6117,"lon":-88.3342,"name":"TILLMANS CORNER 8.7 WNW, AL US","country":"US","source":"NOAA 1991-2020 normals"},"US1ALMC0003":{"lat":32.4481,"lon":-85.8172,"name":"TUSKEGEE 6.2 W, AL US","country":"US","source":"NOAA 1991-2020 normals"},"US1ALMD0002":{"lat":34.6651,"lon":-86.3654,"name":"GURLEY 2.7 S, AL US","country":"US","source":"NOAA 1991-2020 normals"},"US1ALMD0004":{"lat":34.647,"lon":-86.553,"name":"HUNTSVILLE 5.9 SE, AL US","country":"US","source":"NOAA 1991-2020 normals"},"US1ALMD0006":{"lat":34.9352,"lon":-86.5835,"name":"HAZEL GREEN 1.2 NW, AL US","country":"US","source":"NOAA 1991-2020 normals"},"US1ALMD0042":{"lat":34.6689,"lon":-86.4946,"name":"HAMPTON COVE 1.0 NW, AL US","country":"US","source":"NOAA 1991-2020 normals"},"US1ALMD0050":{"lat":34.727,"lon":-86.7453,"name":"MADISON 1.7 N, AL US","country":"US","source":"NOAA 1991-2020 normals"},"US1ALMD0059":{"lat":34.7856,"lon":-86.7114,"name":"HARVEST 5.3 SSE, AL US","country":"US","source":"NOAA 1991-2020 normals"},"US1ALMD0071":{"lat":34.7857,"lon":-86.7375,"name":"MADISON 5.8 N, AL US","country":"US","source":"NOAA 1991-2020 normals"},"US1ALMD0090":{"lat":34.733,"lon":-86.5713,"name":"HUNTSVILLE 3.7 ENE, AL US","country":"US","source":"NOAA 1991-2020 normals"},"US1ALMG0009":{"lat":34.3638,"lon":-86.8217,"name":"FALKVILLE 5.1 E, AL US","country":"US","source":"NOAA 1991-2020 normals"},"US1ALMG0012":{"lat":34.4907,"lon":-86.6328,"name":"LACEY'S SPRING 3.4 SSW, AL US","country":"US","source":"NOAA 1991-2020 normals"},"US1ALMG0014":{"lat":34.4552,"lon":-86.7744,"name":"SOMERVILLE 2.0 SE, AL US","country":"US","source":"NOAA 1991-2020 normals"},"US1ALMG0017":{"lat":34.5148,"lon":-86.9146,"name":"PRICEVILLE 1.8 WSW, AL US","country":"US","source":"NOAA 1991-2020 normals"},"US1ALMR0001":{"lat":33.9793,"lon":-87.9214,"name":"GUIN 1.1 NW, AL US","country":"US","source":"NOAA 1991-2020 normals"},"US1ALMS0011":{"lat":34.3648,"lon":-86.2361,"name":"GUNTERSVILLE 2.0 ENE, AL US","country":"US","source":"NOAA 1991-2020 normals"},"US1ALMS0019":{"lat":34.2494,"lon":-86.3931,"name":"DOUGLAS 6.8 NW, AL US","country":"US","source":"NOAA 1991-2020 normals"},"US1ALMS0020":{"lat":34.4222,"lon":-86.5691,"name":"UNION GROVE 7.2 WNW, AL US","country":"US","source":"NOAA 1991-2020 normals"},"US1ALMS0022":{"lat":34.3424,"lon":-86.2131,"name":"ALBERTVILLE 5.5 N, AL US","country":"US","source":"NOAA 1991-2020 normals"},"US1ALMS0027":{"lat":34.2747,"lon":-86.2369,"name":"ALBERTVILLE 1.8 WNW, AL US","country":"US","source":"NOAA 1991-2020 normals"},"US1ALMS0029":{"lat":34.3562,"lon":-86.3525,"name":"GUNTERSVILLE 4.7 W, AL US","country":"US","source":"NOAA 1991-2020 normals"},"US1ALMY0006":{"lat":32.0323,"lon":-86.2056,"name":"RAMER 1.5 SE, AL US","country":"US","source":"NOAA 1991-2020 normals"},"US1ALMY0007":{"lat":32.3772,"lon":-86.2575,"name":"MONTGOMERY 2.2 NE, AL US","country":"US","source":"NOAA 1991-2020 normals"},"US1ALMY0011":{"lat":32.1678,"lon":-86.2933,"name":"MONTGOMERY 12.9 S, AL US","country":"US","source":"NOAA 1991-2020 normals"},"US1ALRN0002":{"lat":33.2034,"lon":-85.3485,"name":"ROANOKE 4.2 NNE, AL US","country":"US","source":"NOAA 1991-2020 normals"},"US1ALRS0001":{"lat":32.4948,"lon":-85.0295,"name":"PHENIX CITY 2.2 NNW, AL US","country":"US","source":"NOAA 1991-2020 normals"},"US1ALSC0006":{"lat":33.5834,"lon":-86.4633,"name":"MOODY 2.0 ESE, AL US","country":"US","source":"NOAA 1991-2020 normals"},"US1ALSC0011":{"lat":33.8083,"lon":-86.2996,"name":"ASHVILLE 2.7 SW, AL US","country":"US","source":"NOAA 1991-2020 normals"},"US1ALSH0011":{"lat":33.3986,"lon":-86.6673,"name":"MEADOWBROOK 1.7 E, AL US","country":"US","source":"NOAA 1991-2020 normals"},"US1ALSH0014":{"lat":33.4446,"lon":-86.6212,"name":"LAKE PURDY 3.6 ENE, AL US","country":"US","source":"NOAA 1991-2020 normals"},"US1ALSH0022":{"lat":33.2462,"lon":-86.7903,"name":"ALABASTER 2.4 NE, AL US","country":"US","source":"NOAA 1991-2020 normals"},"US1ALSH0048":{"lat":33.4198,"lon":-86.6378,"name":"LAKE PURDY 2.6 ESE, AL US","country":"US","source":"NOAA 1991-2020 normals"},"US1ALSH0052":{"lat":33.1954,"lon":-86.8344,"name":"ALABASTER 2.2 SSW, AL US","country":"US","source":"NOAA 1991-2020 normals"},"US1ALTG0006":{"lat":33.2243,"lon":-86.3195,"name":"BON AIR 2.8 SSE, AL US","country":"US","source":"NOAA 1991-2020 normals"},"US1ALTG0011":{"lat":33.5367,"lon":-86.185,"name":"TALLADEGA 8.8 NW, AL US","country":"US","source":"NOAA 1991-2020 normals"},"US1ALTP0007":{"lat":32.9884,"lon":-85.9492,"name":"ALEXANDER CITY 3.1 NNE, AL US","country":"US","source":"NOAA 1991-2020 normals"},"US1ALTS0003":{"lat":33.0786,"lon":-87.4009,"name":"HOLT 11.4 SSE, AL US","country":"US","source":"NOAA 1991-2020 normals"},"US1ALTS0004":{"lat":33.1853,"lon":-87.4979,"name":"TUSCALOOSA 4.4 SE, AL US","country":"US","source":"NOAA 1991-2020 normals"},"US1ALTS0017":{"lat":33.237,"lon":-87.6869,"name":"COKER 0.6 S, AL US","country":"US","source":"NOAA 1991-2020 normals"},"US1ALWN0001":{"lat":34.1939,"lon":-87.3895,"name":"DOUBLE SPRINGS 3.2 NNE, AL US","country":"US","source":"NOAA 1991-2020 normals"},"US1ALWS0001":{"lat":31.5095,"lon":-87.96,"name":"JACKSON 4.3 WSW, AL US","country":"US","source":"NOAA 1991-2020 normals"},"US1ALWX0002":{"lat":32.0166,"lon":-87.2904,"name":"CAMDEN 1.0 NNE, AL US","country":"US","source":"NOAA 1991-2020 normals"},"US1ARAS0001":{"lat":33.16,"lon":-91.9464,"name":"CROSSETT 2.5 NNE, AR US","country":"US","source":"NOAA 1991-2020 normals"},"US1ARBT0003":{"lat":36.4691,"lon":-94.2576,"name":"BELLA VISTA 2.0 E, AR US","country":"US","source":"NOAA 1991-2020 normals"},"US1ARBT0012":{"lat":36.3275,"lon":-94.413,"name":"DECATUR 2.6 ESE, AR US","country":"US","source":"NOAA 1991-2020 normals"},"US1ARBT0045":{"lat":36.2788,"lon":-94.2437,"name":"BENTONVILLE 6.6 SSW, AR US","country":"US","source":"NOAA 1991-2020 normals"},"US1ARBT0050":{"lat":36.2967,"lon":-94.1424,"name":"ROGERS 2.4 SSW, AR US","country":"US","source":"NOAA 1991-2020 normals"},"US1ARBX0002":{"lat":36.393,"lon":-92.302,"name":"MOUNTAIN HOME 5.8 NE, AR US","country":"US","source":"NOAA 1991-2020 normals"},"US1ARBX0010":{"lat":36.3867,"lon":-92.4975,"name":"MIDWAY 2.0 W, AR US","country":"US","source":"NOAA 1991-2020 normals"},"US1ARBX0036":{"lat":36.2247,"lon":-92.2874,"name":"NORFORK 1.2 NNW, AR US","country":"US","source":"NOAA 1991-2020 normals"},"US1ARCF0005":{"lat":35.4769,"lon":-94.3607,"name":"VAN BUREN 2.1 NNW, AR US","country":"US","source":"NOAA 1991-2020 normals"},"US1ARCN0003":{"lat":33.479,"lon":-92.3705,"name":"HAMPTON 6.8 SE, AR US","country":"US","source":"NOAA 1991-2020 normals"},"US1ARCR0002":{"lat":36.4636,"lon":-93.8235,"name":"BUSCH 0.4 E, AR US","country":"US","source":"NOAA 1991-2020 normals"},"US1ARCR0008":{"lat":36.4671,"lon":-93.737,"name":"HOLIDAY ISLAND 1.3 SSW, AR US","country":"US","source":"NOAA 1991-2020 normals"},"US1ARCW0007":{"lat":35.1236,"lon":-92.9025,"name":"MORRILTON 9.4 WSW, AR US","country":"US","source":"NOAA 1991-2020 normals"},"US1ARDL0001":{"lat":33.9048,"lon":-92.461,"name":"FORDYCE 6.6 NNW, AR US","country":"US","source":"NOAA 1991-2020 normals"},"US1ARDR0009":{"lat":33.6309,"lon":-91.82,"name":"MONTICELLO 1.6 WNW, AR US","country":"US","source":"NOAA 1991-2020 normals"},"US1ARFK0011":{"lat":35.0489,"lon":-92.4415,"name":"CONWAY 2.8 SSE, AR US","country":"US","source":"NOAA 1991-2020 normals"},"US1ARFK0016":{"lat":35.2277,"lon":-92.4324,"name":"GREENBRIER 2.8 W, AR US","country":"US","source":"NOAA 1991-2020 normals"},"US1ARFK0017":{"lat":35.2596,"lon":-92.4054,"name":"GREENBRIER 2.4 NNW, AR US","country":"US","source":"NOAA 1991-2020 normals"},"US1ARFR0002":{"lat":35.2965,"lon":-94.0174,"name":"CHARLESTON 1.7 E, AR US","country":"US","source":"NOAA 1991-2020 normals"},"US1ARFR0003":{"lat":35.43,"lon":-93.84,"name":"OZARK 4.6 S, AR US","country":"US","source":"NOAA 1991-2020 normals"},"US1ARGL0004":{"lat":34.6647,"lon":-92.9792,"name":"HOT SPRINGS VILLAGE 1.2 E, AR US","country":"US","source":"NOAA 1991-2020 normals"},"US1ARGL0016":{"lat":34.4601,"lon":-93.0496,"name":"HOT SPRINGS 2.3 S, AR US","country":"US","source":"NOAA 1991-2020 normals"},"US1ARGN0006":{"lat":36.2086,"lon":-90.5347,"name":"LAFE 1.8 W, AR US","country":"US","source":"NOAA 1991-2020 normals"},"US1ARGT0009":{"lat":34.2922,"lon":-92.4081,"name":"SHERIDAN 1.2 S, AR US","country":"US","source":"NOAA 1991-2020 normals"},"US1ARHM0005":{"lat":33.6563,"lon":-93.5983,"name":"HOPE 0.9 SSW, AR US","country":"US","source":"NOAA 1991-2020 normals"},"US1ARIZ0002":{"lat":36.1298,"lon":-92.1028,"name":"CALICO ROCK 1.6 E, AR US","country":"US","source":"NOAA 1991-2020 normals"},"US1ARIZ0003":{"lat":36.1387,"lon":-92.1254,"name":"CALICO ROCK 0.8 NNE, AR US","country":"US","source":"NOAA 1991-2020 normals"},"US1ARJF0004":{"lat":34.189,"lon":-92.0386,"name":"PINE BLUFF 2.0 SW, AR US","country":"US","source":"NOAA 1991-2020 normals"},"US1ARLF0003":{"lat":33.1181,"lon":-93.7902,"name":"BRADLEY 7.8 W, AR US","country":"US","source":"NOAA 1991-2020 normals"},"US1ARLG0009":{"lat":35.3764,"lon":-93.4452,"name":"SCRANTON 5.4 ENE, AR US","country":"US","source":"NOAA 1991-2020 normals"},"US1ARLK0001":{"lat":34.9646,"lon":-91.9657,"name":"AUSTIN 2.5 SSE, AR US","country":"US","source":"NOAA 1991-2020 normals"},"US1ARLW0002":{"lat":36.0223,"lon":-91.2712,"name":"SMITHVILLE 4.4 SSE, AR US","country":"US","source":"NOAA 1991-2020 normals"},"US1ARML0003":{"lat":33.3767,"lon":-94.0421,"name":"TEXARKANA 5.3 SSW, AR US","country":"US","source":"NOAA 1991-2020 normals"},"US1ARML0011":{"lat":33.2819,"lon":-93.7976,"name":"FOUKE 5.3 ENE, AR US","country":"US","source":"NOAA 1991-2020 normals"},"US1ARNW0013":{"lat":35.9698,"lon":-93.1381,"name":"JASPER 3.8 SE, AR US","country":"US","source":"NOAA 1991-2020 normals"},"US1ARPK0001":{"lat":34.0331,"lon":-93.5069,"name":"DELIGHT 0.3 NNW, AR US","country":"US","source":"NOAA 1991-2020 normals"},"US1ARPK0003":{"lat":34.0417,"lon":-93.5418,"name":"DELIGHT 2.2 WNW, AR US","country":"US","source":"NOAA 1991-2020 normals"},"US1ARPL0006":{"lat":34.5966,"lon":-94.2296,"name":"MENA 1.2 NNE, AR US","country":"US","source":"NOAA 1991-2020 normals"},"US1ARPP0003":{"lat":35.3055,"lon":-93.0172,"name":"RUSSELLVILLE 7.3 ENE, AR US","country":"US","source":"NOAA 1991-2020 normals"},"US1ARPS0005":{"lat":34.7537,"lon":-92.3527,"name":"LITTLE ROCK 2.2 N, AR US","country":"US","source":"NOAA 1991-2020 normals"},"US1ARPS0007":{"lat":34.8572,"lon":-92.2155,"name":"SHERWOOD 1.8 NNW, AR US","country":"US","source":"NOAA 1991-2020 normals"},"US1ARPS0011":{"lat":34.8091,"lon":-92.2439,"name":"NORTH LITTLE ROCK 1.6 NNE, AR US","country":"US","source":"NOAA 1991-2020 normals"},"US1ARPS0016":{"lat":34.7892,"lon":-92.2341,"name":"NORTH LITTLE ROCK 1.2 E, AR US","country":"US","source":"NOAA 1991-2020 normals"},"US1ARPS0024":{"lat":34.766,"lon":-92.406,"name":"LITTLE ROCK 4.2 NW, AR US","country":"US","source":"NOAA 1991-2020 normals"},"US1ARPS0026":{"lat":34.8923,"lon":-92.2439,"name":"SHERWOOD 4.6 NNW, AR US","country":"US","source":"NOAA 1991-2020 normals"},"US1ARPS0054":{"lat":34.8446,"lon":-92.3996,"name":"MAUMELLE 0.8 SE, AR US","country":"US","source":"NOAA 1991-2020 normals"},"US1ARPS0056":{"lat":34.7786,"lon":-92.3393,"name":"LITTLE ROCK 4.0 NNE, AR US","country":"US","source":"NOAA 1991-2020 normals"},"US1ARPS0058":{"lat":34.824,"lon":-92.2531,"name":"NORTH LITTLE ROCK 2.5 N, AR US","country":"US","source":"NOAA 1991-2020 normals"},"US1ARPY0002":{"lat":34.9631,"lon":-92.7072,"name":"HOUSTON 5.0 S, AR US","country":"US","source":"NOAA 1991-2020 normals"},"US1ARSB0004":{"lat":35.21,"lon":-94.26,"name":"GREENWOOD 1.4 W, AR US","country":"US","source":"NOAA 1991-2020 normals"},"US1ARSB0008":{"lat":35.2267,"lon":-94.2632,"name":"GREENWOOD 1.9 WNW, AR US","country":"US","source":"NOAA 1991-2020 normals"},"US1ARSC0003":{"lat":34.8442,"lon":-93.8652,"name":"PARKS 6.2 ENE, AR US","country":"US","source":"NOAA 1991-2020 normals"},"US1ARSH0011":{"lat":36.2084,"lon":-91.5115,"name":"HARDY 8.0 SSW, AR US","country":"US","source":"NOAA 1991-2020 normals"},"US1ARSH0017":{"lat":36.1682,"lon":-91.511,"name":"HARDY 10.7 S, AR US","country":"US","source":"NOAA 1991-2020 normals"},"US1ARSH0019":{"lat":36.2407,"lon":-91.5922,"name":"ASH FLAT 1.3 NE, AR US","country":"US","source":"NOAA 1991-2020 normals"},"US1ARSL0023":{"lat":34.536,"lon":-92.7651,"name":"BENTON 10.9 WSW, AR US","country":"US","source":"NOAA 1991-2020 normals"},"US1ARSL0035":{"lat":34.6067,"lon":-92.3747,"name":"SHANNON HILLS 2.2 ESE, AR US","country":"US","source":"NOAA 1991-2020 normals"},"US1ARSR0008":{"lat":36.0518,"lon":-92.8434,"name":"ST. JOE 2.7 WNW, AR US","country":"US","source":"NOAA 1991-2020 normals"},"US1ARST0011":{"lat":35.8674,"lon":-92.3777,"name":"LESLIE 10.3 ENE, AR US","country":"US","source":"NOAA 1991-2020 normals"},"US1ARST0012":{"lat":35.8592,"lon":-92.0467,"name":"MOUNTAIN VIEW 3.7 ESE, AR US","country":"US","source":"NOAA 1991-2020 normals"},"US1ARST0013":{"lat":35.8258,"lon":-91.9405,"name":"PLEASANT GROVE 1.9 WNW, AR US","country":"US","source":"NOAA 1991-2020 normals"},"US1ARST0022":{"lat":35.947,"lon":-92.2358,"name":"MOUNTAIN VIEW 8.8 NW, AR US","country":"US","source":"NOAA 1991-2020 normals"},"US1ARST0023":{"lat":35.8715,"lon":-92.3435,"name":"MOUNTAIN VIEW 13.0 W, AR US","country":"US","source":"NOAA 1991-2020 normals"},"US1ARST0024":{"lat":35.7375,"lon":-92.2745,"name":"SHIRLEY 6.8 NNE, AR US","country":"US","source":"NOAA 1991-2020 normals"},"US1ARST0025":{"lat":35.8121,"lon":-91.8957,"name":"MOUNTAIN VIEW 12.7 ESE, AR US","country":"US","source":"NOAA 1991-2020 normals"},"US1ARVB0011":{"lat":35.4755,"lon":-92.3039,"name":"BEE BRANCH 5.4 ENE, AR US","country":"US","source":"NOAA 1991-2020 normals"},"US1ARWH0005":{"lat":35.1937,"lon":-91.6902,"name":"SEARCY 4.1 SE, AR US","country":"US","source":"NOAA 1991-2020 normals"},"US1ARWS0036":{"lat":35.9996,"lon":-94.0099,"name":"ELKINS 1.7 SE, AR US","country":"US","source":"NOAA 1991-2020 normals"},"US1AZAP0007":{"lat":33.9417,"lon":-109.2412,"name":"NUTRIOSO 1.9 WSW, AZ US","country":"US","source":"NOAA 1991-2020 normals"},"US1AZCH0017":{"lat":31.549,"lon":-110.2776,"name":"SIERRA VISTA 1.3 E, AZ US","country":"US","source":"NOAA 1991-2020 normals"},"US1AZCH0022":{"lat":31.6867,"lon":-110.3806,"name":"WHETSTONE 2.6 SW, AZ US","country":"US","source":"NOAA 1991-2020 normals"},"US1AZCH0027":{"lat":31.4661,"lon":-110.2267,"name":"SIERRA VISTA 7.2 SE, AZ US","country":"US","source":"NOAA 1991-2020 normals"},"US1AZCH0050":{"lat":31.3411,"lon":-109.5226,"name":"DOUGLAS 1.0 E, AZ US","country":"US","source":"NOAA 1991-2020 normals"},"US1AZCH0054":{"lat":31.3516,"lon":-110.2132,"name":"HEREFORD 9.0 SW, AZ US","country":"US","source":"NOAA 1991-2020 normals"},"US1AZCH0057":{"lat":31.53,"lon":-110.2804,"name":"SIERRA VISTA 1.8 SE, AZ US","country":"US","source":"NOAA 1991-2020 normals"},"US1AZCH0066":{"lat":31.437,"lon":-110.1296,"name":"HEREFORD 1.9 WSW, AZ US","country":"US","source":"NOAA 1991-2020 normals"},"US1AZCH0069":{"lat":31.4583,"lon":-109.5969,"name":"DOUGLAS 8.8 NNW, AZ US","country":"US","source":"NOAA 1991-2020 normals"},"US1AZCN0020":{"lat":35.1934,"lon":-112.1765,"name":"WILLIAMS 3.3 SSE, AZ US","country":"US","source":"NOAA 1991-2020 normals"},"US1AZCN0027":{"lat":35.2617,"lon":-111.5343,"name":"FLAGSTAFF 8.2 NE, AZ US","country":"US","source":"NOAA 1991-2020 normals"},"US1AZCN0033":{"lat":35.1704,"lon":-111.6815,"name":"FLAGSTAFF 2.2 SW, AZ US","country":"US","source":"NOAA 1991-2020 normals"},"US1AZCN0069":{"lat":36.9125,"lon":-111.4501,"name":"PAGE 0.2 N, AZ US","country":"US","source":"NOAA 1991-2020 normals"},"US1AZCN0113":{"lat":35.1628,"lon":-111.6837,"name":"FLAGSTAFF 2.7 SW, AZ US","country":"US","source":"NOAA 1991-2020 normals"},"US1AZGH0002":{"lat":32.8857,"lon":-109.81,"name":"PIMA 0.7 ESE, AZ US","country":"US","source":"NOAA 1991-2020 normals"},"US1AZMH0006":{"lat":34.521,"lon":-114.2802,"name":"LAKE HAVASU 3.5 NE, AZ US","country":"US","source":"NOAA 1991-2020 normals"},"US1AZMH0027":{"lat":35.6126,"lon":-114.2662,"name":"DOLAN SPRINGS 1.4 NNE, AZ US","country":"US","source":"NOAA 1991-2020 normals"},"US1AZMR0016":{"lat":33.71,"lon":-111.8415,"name":"SCOTTSDALE 2.3 NE, AZ US","country":"US","source":"NOAA 1991-2020 normals"},"US1AZMR0026":{"lat":33.6648,"lon":-112.371,"name":"SUN CITY WEST 1.0 W, AZ US","country":"US","source":"NOAA 1991-2020 normals"},"US1AZMR0031":{"lat":33.8186,"lon":-111.8818,"name":"CAREFREE 2.1 E, AZ US","country":"US","source":"NOAA 1991-2020 normals"},"US1AZMR0032":{"lat":33.3404,"lon":-111.9303,"name":"TEMPE 3.3 S, AZ US","country":"US","source":"NOAA 1991-2020 normals"},"US1AZMR0034":{"lat":33.3925,"lon":-112.1437,"name":"PHOENIX 5.6 SW, AZ US","country":"US","source":"NOAA 1991-2020 normals"},"US1AZMR0035":{"lat":33.5041,"lon":-112.3399,"name":"LITCHFIELD PARK 1.1 E, AZ US","country":"US","source":"NOAA 1991-2020 normals"},"US1AZMR0042":{"lat":33.6546,"lon":-112.4481,"name":"SURPRISE 1.3 ESE, AZ US","country":"US","source":"NOAA 1991-2020 normals"},"US1AZMR0045":{"lat":33.7566,"lon":-111.9046,"name":"SCOTTSDALE 5.3 NNW, AZ US","country":"US","source":"NOAA 1991-2020 normals"},"US1AZMR0046":{"lat":33.5339,"lon":-112.1957,"name":"GLENDALE 3.5 S, AZ US","country":"US","source":"NOAA 1991-2020 normals"},"US1AZMR0048":{"lat":33.358,"lon":-111.8563,"name":"MESA 7.9 WSW, AZ US","country":"US","source":"NOAA 1991-2020 normals"},"US1AZMR0064":{"lat":33.5752,"lon":-112.1834,"name":"GLENDALE 1.2 ESE, AZ US","country":"US","source":"NOAA 1991-2020 normals"},"US1AZMR0071":{"lat":33.4741,"lon":-111.9395,"name":"SCOTTSDALE 7.8 SSW, AZ US","country":"US","source":"NOAA 1991-2020 normals"},"US1AZMR0075":{"lat":33.3741,"lon":-111.8053,"name":"GILBERT 3.8 NW, AZ US","country":"US","source":"NOAA 1991-2020 normals"},"US1AZMR0082":{"lat":33.572,"lon":-112.0132,"name":"PHOENIX 9.2 NE, AZ US","country":"US","source":"NOAA 1991-2020 normals"},"US1AZMR0096":{"lat":33.3978,"lon":-111.7501,"name":"MESA 1.5 SSW, AZ US","country":"US","source":"NOAA 1991-2020 normals"},"US1AZMR0103":{"lat":33.6321,"lon":-112.2903,"name":"SUN CITY 1.2 NNW, AZ US","country":"US","source":"NOAA 1991-2020 normals"},"US1AZMR0105":{"lat":33.4654,"lon":-111.6445,"name":"MESA 6.4 ENE, AZ US","country":"US","source":"NOAA 1991-2020 normals"},"US1AZMR0113":{"lat":33.6158,"lon":-111.9566,"name":"SCOTTSDALE 4.0 NW, AZ US","country":"US","source":"NOAA 1991-2020 normals"},"US1AZMR0131":{"lat":33.5039,"lon":-112.0882,"name":"PHOENIX 3.8 NNW, AZ US","country":"US","source":"NOAA 1991-2020 normals"},"US1AZMR0157":{"lat":33.2213,"lon":-111.7756,"name":"CHANDLER 6.6 SE, AZ US","country":"US","source":"NOAA 1991-2020 normals"},"US1AZMR0170":{"lat":33.4066,"lon":-112.4485,"name":"GOODYEAR 5.9 WSW, AZ US","country":"US","source":"NOAA 1991-2020 normals"},"US1AZMR0197":{"lat":33.3552,"lon":-111.8461,"name":"CHANDLER 3.8 N, AZ US","country":"US","source":"NOAA 1991-2020 normals"},"US1AZMR0207":{"lat":33.4514,"lon":-111.9182,"name":"SCOTTSDALE 3.7 SSW, AZ US","country":"US","source":"NOAA 1991-2020 normals"},"US1AZMR0218":{"lat":33.3671,"lon":-111.7204,"name":"GILBERT 3.6 ENE, AZ US","country":"US","source":"NOAA 1991-2020 normals"},"US1AZMR0220":{"lat":33.6258,"lon":-112.0591,"name":"PHOENIX 12.8 N, AZ US","country":"US","source":"NOAA 1991-2020 normals"},"US1AZMR0261":{"lat":33.4305,"lon":-111.7956,"name":"MESA 1.6 ENE, AZ US","country":"US","source":"NOAA 1991-2020 normals"},"US1AZMR0264":{"lat":33.6468,"lon":-111.9872,"name":"SCOTTSDALE 11.6 NNW, AZ US","country":"US","source":"NOAA 1991-2020 normals"},"US1AZMR0280":{"lat":33.372,"lon":-111.812,"name":"GILBERT 2.4 NW, AZ US","country":"US","source":"NOAA 1991-2020 normals"},"US1AZMR0287":{"lat":33.7375,"lon":-112.1904,"name":"SURPRISE 10.9 NE, AZ US","country":"US","source":"NOAA 1991-2020 normals"},"US1AZMR0289":{"lat":33.7062,"lon":-112.1721,"name":"GLENDALE 12.2 N, AZ US","country":"US","source":"NOAA 1991-2020 normals"},"US1AZMR0313":{"lat":33.2938,"lon":-112.0888,"name":"PHOENIX 10.2 S, AZ US","country":"US","source":"NOAA 1991-2020 normals"},"US1AZMR0326":{"lat":33.3504,"lon":-112.0945,"name":"PHOENIX 6.3 SSW, AZ US","country":"US","source":"NOAA 1991-2020 normals"},"US1AZMR0337":{"lat":33.4065,"lon":-111.6103,"name":"MESA 12.1 E, AZ US","country":"US","source":"NOAA 1991-2020 normals"},"US1AZMR0342":{"lat":33.3476,"lon":-111.5999,"name":"MESA 13.6 ESE, AZ US","country":"US","source":"NOAA 1991-2020 normals"},"US1AZMR0343":{"lat":33.4912,"lon":-111.9993,"name":"PHOENIX 5.4 NE, AZ US","country":"US","source":"NOAA 1991-2020 normals"},"US1AZMR0344":{"lat":33.4743,"lon":-112.3017,"name":"AVONDALE 3.8 NE, AZ US","country":"US","source":"NOAA 1991-2020 normals"},"US1AZMR0352":{"lat":33.3707,"lon":-111.9503,"name":"TEMPE 4.0 SW, AZ US","country":"US","source":"NOAA 1991-2020 normals"},"US1AZMR0357":{"lat":33.2204,"lon":-111.749,"name":"GILBERT 9.1 SSE, AZ US","country":"US","source":"NOAA 1991-2020 normals"},"US1AZMR0372":{"lat":33.8006,"lon":-112.1099,"name":"CAVE CREEK 9.4 WSW, AZ US","country":"US","source":"NOAA 1991-2020 normals"},"US1AZMR0373":{"lat":33.4412,"lon":-111.7417,"name":"MESA 4.7 ENE, AZ US","country":"US","source":"NOAA 1991-2020 normals"},"US1AZMR0379":{"lat":33.5486,"lon":-112.1425,"name":"GLENDALE 2.5 ENE, AZ US","country":"US","source":"NOAA 1991-2020 normals"},"US1AZMR0384":{"lat":33.5919,"lon":-111.7731,"name":"SCOTTSDALE 9.3 NE, AZ US","country":"US","source":"NOAA 1991-2020 normals"},"US1AZMR0386":{"lat":33.3123,"lon":-111.7307,"name":"GILBERT 3.9 SE, AZ US","country":"US","source":"NOAA 1991-2020 normals"},"US1AZMR0387":{"lat":33.6159,"lon":-111.8861,"name":"SCOTTSDALE 8.0 N, AZ US","country":"US","source":"NOAA 1991-2020 normals"},"US1AZMR0402":{"lat":33.5127,"lon":-112.4589,"name":"LITCHFIELD PARK 6.5 WNW, AZ US","country":"US","source":"NOAA 1991-2020 normals"},"US1AZMR0410":{"lat":33.4761,"lon":-112.0797,"name":"PHOENIX 2.6 NNW, AZ US","country":"US","source":"NOAA 1991-2020 normals"},"US1AZMR0412":{"lat":33.4955,"lon":-112.3491,"name":"LITCHFIELD PARK 0.4 N, AZ US","country":"US","source":"NOAA 1991-2020 normals"},"US1AZMR0420":{"lat":33.6195,"lon":-112.1381,"name":"PHOENIX 13.0 NNW, AZ US","country":"US","source":"NOAA 1991-2020 normals"},"US1AZMR0442":{"lat":33.3702,"lon":-111.8645,"name":"MESA 4.3 SW, AZ US","country":"US","source":"NOAA 1991-2020 normals"},"US1AZMR0443":{"lat":33.6232,"lon":-112.0797,"name":"PHOENIX 12.7 N, AZ US","country":"US","source":"NOAA 1991-2020 normals"},"US1AZMR0448":{"lat":33.5763,"lon":-112.4536,"name":"WADDELL 0.2 W, AZ US","country":"US","source":"NOAA 1991-2020 normals"},"US1AZMR0477":{"lat":33.3629,"lon":-111.9254,"name":"TEMPE 3.6 SSW, AZ US","country":"US","source":"NOAA 1991-2020 normals"},"US1AZMR0484":{"lat":33.5635,"lon":-111.9311,"name":"PARADISE VALLEY 2.4 NNE, AZ US","country":"US","source":"NOAA 1991-2020 normals"},"US1AZMR0499":{"lat":33.7775,"lon":-112.5232,"name":"WITTMANN 0.5 ESE, AZ US","country":"US","source":"NOAA 1991-2020 normals"},"US1AZNV0007":{"lat":34.1109,"lon":-109.9003,"name":"PINETOP-LAKESIDE 4.0 ESE, AZ US","country":"US","source":"NOAA 1991-2020 normals"},"US1AZNV0009":{"lat":34.4727,"lon":-110.1435,"name":"TAYLOR 3.2 WNW, AZ US","country":"US","source":"NOAA 1991-2020 normals"},"US1AZNV0010":{"lat":34.2825,"lon":-110.1266,"name":"SHOW LOW 6.5 WNW, AZ US","country":"US","source":"NOAA 1991-2020 normals"},"US1AZNV0012":{"lat":34.4969,"lon":-110.1668,"name":"SNOWFLAKE 5.6 W, AZ US","country":"US","source":"NOAA 1991-2020 normals"},"US1AZNV0018":{"lat":34.2457,"lon":-110.0594,"name":"SHOW LOW 2.3 W, AZ US","country":"US","source":"NOAA 1991-2020 normals"},"US1AZPM0003":{"lat":32.3477,"lon":-110.9802,"name":"TUCSON 11.7 NNW, AZ US","country":"US","source":"NOAA 1991-2020 normals"},"US1AZPM0013":{"lat":31.9525,"lon":-110.763,"name":"CORONA DE TUSCON 0.4 SE, AZ US","country":"US","source":"NOAA 1991-2020 normals"},"US1AZPM0031":{"lat":32.1389,"lon":-111.0382,"name":"TUCSON 8.9 SW, AZ US","country":"US","source":"NOAA 1991-2020 normals"},"US1AZPM0038":{"lat":32.1213,"lon":-111.1216,"name":"VALENCIA WEST 1.3 SW, AZ US","country":"US","source":"NOAA 1991-2020 normals"},"US1AZPM0047":{"lat":32.3827,"lon":-111.0379,"name":"FLOWING WELLS 6.4 NNW, AZ US","country":"US","source":"NOAA 1991-2020 normals"},"US1AZPM0050":{"lat":32.2536,"lon":-110.9075,"name":"TUCSON 4.1 NNW, AZ US","country":"US","source":"NOAA 1991-2020 normals"},"US1AZPM0051":{"lat":32.2144,"lon":-110.929,"name":"TUCSON 2.5 WNW, AZ US","country":"US","source":"NOAA 1991-2020 normals"},"US1AZPM0062":{"lat":32.2763,"lon":-110.9904,"name":"TUCSON 8.0 NW, AZ US","country":"US","source":"NOAA 1991-2020 normals"},"US1AZPM0069":{"lat":32.4177,"lon":-110.9475,"name":"ORO VALLEY 1.1 ESE, AZ US","country":"US","source":"NOAA 1991-2020 normals"},"US1AZPM0105":{"lat":31.812,"lon":-111.016,"name":"GREEN VALLEY 3.2 SW, AZ US","country":"US","source":"NOAA 1991-2020 normals"},"US1AZPM0107":{"lat":32.3427,"lon":-111.2041,"name":"TUCSON 18.6 WNW, AZ US","country":"US","source":"NOAA 1991-2020 normals"},"US1AZPM0108":{"lat":32.2785,"lon":-110.9303,"name":"TUCSON 4.1 N, AZ US","country":"US","source":"NOAA 1991-2020 normals"},"US1AZPM0109":{"lat":31.9607,"lon":-110.9919,"name":"SAHUARITA 2.6 WNW, AZ US","country":"US","source":"NOAA 1991-2020 normals"},"US1AZPM0119":{"lat":32.2319,"lon":-110.8893,"name":"TUCSON 2.0 ENE, AZ US","country":"US","source":"NOAA 1991-2020 normals"},"US1AZPM0132":{"lat":32.2918,"lon":-110.8027,"name":"TUCSON 8.5 NE, AZ US","country":"US","source":"NOAA 1991-2020 normals"},"US1AZPM0135":{"lat":32.2709,"lon":-111.0296,"name":"TUCSON 7.3 WNW, AZ US","country":"US","source":"NOAA 1991-2020 normals"},"US1AZPM0137":{"lat":32.4745,"lon":-110.958,"name":"ORO VALLEY 5.8 N, AZ US","country":"US","source":"NOAA 1991-2020 normals"},"US1AZPM0145":{"lat":32.2163,"lon":-110.8363,"name":"TUCSON 4.9 E, AZ US","country":"US","source":"NOAA 1991-2020 normals"},"US1AZPM0146":{"lat":32.303,"lon":-110.7438,"name":"TUCSON 11.8 ENE, AZ US","country":"US","source":"NOAA 1991-2020 normals"},"US1AZPM0147":{"lat":32.2318,"lon":-110.9363,"name":"TUCSON 1.3 NW, AZ US","country":"US","source":"NOAA 1991-2020 normals"},"US1AZPM0156":{"lat":32.2546,"lon":-110.672,"name":"TUCSON 14.7 E, AZ US","country":"US","source":"NOAA 1991-2020 normals"},"US1AZPM0181":{"lat":32.3707,"lon":-111.118,"name":"TUCSON 15.5 NW, AZ US","country":"US","source":"NOAA 1991-2020 normals"},"US1AZPM0214":{"lat":32.1073,"lon":-110.7929,"name":"TUCSON 10.8 SE, AZ US","country":"US","source":"NOAA 1991-2020 normals"},"US1AZPM0215":{"lat":32.1324,"lon":-110.8829,"name":"TUCSON 6.4 SSE, AZ US","country":"US","source":"NOAA 1991-2020 normals"},"US1AZPM0233":{"lat":32.171,"lon":-111.05,"name":"TUCSON 8.3 WSW, AZ US","country":"US","source":"NOAA 1991-2020 normals"},"US1AZPM0244":{"lat":32.322,"lon":-111.0385,"name":"TUCSON 9.9 NW, AZ US","country":"US","source":"NOAA 1991-2020 normals"},"US1AZPM0250":{"lat":32.2453,"lon":-110.9289,"name":"TUCSON 1.8 NNW, AZ US","country":"US","source":"NOAA 1991-2020 normals"},"US1AZPM0261":{"lat":32.2555,"lon":-110.8449,"name":"TUCSON 5.0 ENE, AZ US","country":"US","source":"NOAA 1991-2020 normals"},"US1AZPM0269":{"lat":31.8683,"lon":-111.0098,"name":"GREEN VALLEY 1.2 W, AZ US","country":"US","source":"NOAA 1991-2020 normals"},"US1AZPM0285":{"lat":32.462,"lon":-110.9679,"name":"ORO VALLEY 5.0 N, AZ US","country":"US","source":"NOAA 1991-2020 normals"},"US1AZPM0304":{"lat":32.2277,"lon":-110.7355,"name":"TUCSON 10.8 E, AZ US","country":"US","source":"NOAA 1991-2020 normals"},"US1AZPM0318":{"lat":32.1297,"lon":-111.1299,"name":"VALENCIA WEST 1.1 E, AZ US","country":"US","source":"NOAA 1991-2020 normals"},"US1AZPN0020":{"lat":33.396,"lon":-111.5807,"name":"APACHE JUNCTION 2.5 WSW, AZ US","country":"US","source":"NOAA 1991-2020 normals"},"US1AZPN0024":{"lat":33.3666,"lon":-111.46,"name":"APACHE JUNCTION 5.5 ESE, AZ US","country":"US","source":"NOAA 1991-2020 normals"},"US1AZPN0025":{"lat":33.108,"lon":-111.5072,"name":"FLORENCE 9.1 NW, AZ US","country":"US","source":"NOAA 1991-2020 normals"},"US1AZPN0027":{"lat":33.4563,"lon":-111.5425,"name":"APACHE JUNCTION 3.2 N, AZ US","country":"US","source":"NOAA 1991-2020 normals"},"US1AZPN0033":{"lat":32.9603,"lon":-111.7841,"name":"CASA GRANDE 6.5 NNW, AZ US","country":"US","source":"NOAA 1991-2020 normals"},"US1AZPN0035":{"lat":33.3916,"lon":-111.4928,"name":"APACHE JUNCTION 3.0 ESE, AZ US","country":"US","source":"NOAA 1991-2020 normals"},"US1AZPN0037":{"lat":32.809,"lon":-111.684,"name":"CASA GRANDE 5.7 SE, AZ US","country":"US","source":"NOAA 1991-2020 normals"},"US1AZPN0049":{"lat":32.6058,"lon":-110.7894,"name":"ORACLE 1.1 WSW, AZ US","country":"US","source":"NOAA 1991-2020 normals"},"US1AZPN0073":{"lat":33.2606,"lon":-111.5676,"name":"QUEEN CREEK 3.9 ENE, AZ US","country":"US","source":"NOAA 1991-2020 normals"},"US1AZPN0077":{"lat":33.2982,"lon":-111.2866,"name":"QUEEN VALLEY 0.2 E, AZ US","country":"US","source":"NOAA 1991-2020 normals"},"US1AZSC0010":{"lat":31.5883,"lon":-111.0876,"name":"TUBAC 2.9 SW, AZ US","country":"US","source":"NOAA 1991-2020 normals"},"US1AZSC0013":{"lat":31.437,"lon":-111.0396,"name":"RIO RICO 4.4 WSW, AZ US","country":"US","source":"NOAA 1991-2020 normals"},"US1AZYM0001":{"lat":32.6341,"lon":-114.4056,"name":"YUMA 13.8 ESE, AZ US","country":"US","source":"NOAA 1991-2020 normals"},"US1AZYM0007":{"lat":32.6432,"lon":-114.523,"name":"YUMA 7.7 SE, AZ US","country":"US","source":"NOAA 1991-2020 normals"},"US1AZYV0001":{"lat":34.6016,"lon":-112.3043,"name":"PRESCOTT VALLEY 1.1 ESE, AZ US","country":"US","source":"NOAA 1991-2020 normals"},"US1AZYV0005":{"lat":34.2826,"lon":-112.1991,"name":"MAYER 8.5 SSE, AZ US","country":"US","source":"NOAA 1991-2020 normals"},"US1AZYV0018":{"lat":34.7231,"lon":-112.0238,"name":"COTTONWOOD 1.4 WSW, AZ US","country":"US","source":"NOAA 1991-2020 normals"},"US1AZYV0030":{"lat":34.7973,"lon":-111.9,"name":"SEDONA 9.0 WSW, AZ US","country":"US","source":"NOAA 1991-2020 normals"},"US1AZYV0034":{"lat":34.8559,"lon":-112.4517,"name":"PAULDEN 2.3 SSE, AZ US","country":"US","source":"NOAA 1991-2020 normals"},"US1AZYV0042":{"lat":34.6062,"lon":-112.4623,"name":"PRESCOTT 4.6 N, AZ US","country":"US","source":"NOAA 1991-2020 normals"},"US1AZYV0049":{"lat":34.5288,"lon":-112.4611,"name":"PRESCOTT 0.8 S, AZ US","country":"US","source":"NOAA 1991-2020 normals"},"US1AZYV0052":{"lat":34.4349,"lon":-112.6079,"name":"PRESCOTT 11.1 SW, AZ US","country":"US","source":"NOAA 1991-2020 normals"},"US1AZYV0055":{"lat":34.7063,"lon":-111.9185,"name":"CORNVILLE 0.8 SSE, AZ US","country":"US","source":"NOAA 1991-2020 normals"},"US1AZYV0060":{"lat":34.34,"lon":-112.164,"name":"SPRING VALLEY 0.4 SW, AZ US","country":"US","source":"NOAA 1991-2020 normals"},"US1AZYV0068":{"lat":34.534,"lon":-112.4714,"name":"PRESCOTT 0.8 WSW, AZ US","country":"US","source":"NOAA 1991-2020 normals"},"US1AZYV0087":{"lat":34.514,"lon":-112.2241,"name":"DEWEY-HUMBOLDT 1.4 SE, AZ US","country":"US","source":"NOAA 1991-2020 normals"},"US1AZYV0092":{"lat":34.6546,"lon":-112.5122,"name":"PRESCOTT 8.5 NNW, AZ US","country":"US","source":"NOAA 1991-2020 normals"},"US1AZYV0136":{"lat":34.5997,"lon":-111.8778,"name":"CAMP VERDE 3.2 NNW, AZ US","country":"US","source":"NOAA 1991-2020 normals"},"US1CAAL0001":{"lat":37.8123,"lon":-122.216,"name":"PIEDMONT 1.0 SE, CA US","country":"US","source":"NOAA 1991-2020 normals"},"US1CAAL0003":{"lat":37.7169,"lon":-122.0585,"name":"CASTRO VALLEY 0.4 NNE, CA US","country":"US","source":"NOAA 1991-2020 normals"},"US1CAAL0004":{"lat":37.6483,"lon":-121.8745,"name":"PLEASANTON 1.8 SSE, CA US","country":"US","source":"NOAA 1991-2020 normals"},"US1CAAL0012":{"lat":37.6702,"lon":-121.8814,"name":"PLEASANTON 0.4 ESE, CA US","country":"US","source":"NOAA 1991-2020 normals"},"US1CAAL0018":{"lat":37.8575,"lon":-122.2256,"name":"BERKELEY 4.0 E, CA US","country":"US","source":"NOAA 1991-2020 normals"},"US1CAAL0030":{"lat":37.7778,"lon":-122.2032,"name":"OAKLAND 1.2 ENE, CA US","country":"US","source":"NOAA 1991-2020 normals"},"US1CAAM0009":{"lat":38.4882,"lon":-120.6313,"name":"VOLCANO 3.2 N, CA US","country":"US","source":"NOAA 1991-2020 normals"},"US1CABT0009":{"lat":39.7494,"lon":-121.8614,"name":"CHICO 2.9 W, CA US","country":"US","source":"NOAA 1991-2020 normals"},"US1CABT0026":{"lat":39.3348,"lon":-121.6458,"name":"GRIDLEY 3.3 SE, CA US","country":"US","source":"NOAA 1991-2020 normals"},"US1CABT0033":{"lat":39.4064,"lon":-121.5,"name":"PALERMO 2.7 SE, CA US","country":"US","source":"NOAA 1991-2020 normals"},"US1CACC0001":{"lat":37.9898,"lon":-122.1085,"name":"MARTINEZ 0.8 SSE, CA US","country":"US","source":"NOAA 1991-2020 normals"},"US1CACC0004":{"lat":37.8783,"lon":-122.0338,"name":"WALNUT CREEK 1.7 SSE, CA US","country":"US","source":"NOAA 1991-2020 normals"},"US1CACC0010":{"lat":37.8883,"lon":-122.1526,"name":"LAFAYETTE 1.9 WSW, CA US","country":"US","source":"NOAA 1991-2020 normals"},"US1CACC0011":{"lat":37.9744,"lon":-122.1384,"name":"MARTINEZ 2.2 SW, CA US","country":"US","source":"NOAA 1991-2020 normals"},"US1CACC0016":{"lat":37.9783,"lon":-122.0134,"name":"CONCORD 0.8 WNW, CA US","country":"US","source":"NOAA 1991-2020 normals"},"US1CACC0018":{"lat":37.8846,"lon":-122.0285,"name":"WALNUT CREEK 1.4 SSE, CA US","country":"US","source":"NOAA 1991-2020 normals"},"US1CACC0028":{"lat":37.9363,"lon":-122.3157,"name":"EL CERRITO 1.3 NW, CA US","country":"US","source":"NOAA 1991-2020 normals"},"US1CACC0031":{"lat":37.8911,"lon":-122.0811,"name":"WALNUT CREEK 2.3 WSW, CA US","country":"US","source":"NOAA 1991-2020 normals"},"US1CACC0037":{"lat":37.9533,"lon":-121.9712,"name":"CONCORD 2.1 SE, CA US","country":"US","source":"NOAA 1991-2020 normals"},"US1CACC0040":{"lat":37.9226,"lon":-122.3068,"name":"EL CERRITO 0.3 WNW, CA US","country":"US","source":"NOAA 1991-2020 normals"},"US1CADN0001":{"lat":41.824,"lon":-124.1482,"name":"CRESCENT CITY 5.5 NNE, CA US","country":"US","source":"NOAA 1991-2020 normals"},"US1CADN0006":{"lat":41.9153,"lon":-124.136,"name":"SMITH RIVER 1.1 SSE, CA US","country":"US","source":"NOAA 1991-2020 normals"},"US1CAED0003":{"lat":38.6953,"lon":-120.849,"name":"PLACERVILLE 3.7 SW, CA US","country":"US","source":"NOAA 1991-2020 normals"},"US1CAED0010":{"lat":38.7392,"lon":-120.7846,"name":"PLACERVILLE 0.9 NE, CA US","country":"US","source":"NOAA 1991-2020 normals"},"US1CAED0011":{"lat":38.757,"lon":-120.5775,"name":"POLLOCK PINES 0.5 NW, CA US","country":"US","source":"NOAA 1991-2020 normals"},"US1CAED0017":{"lat":38.7338,"lon":-120.711,"name":"CAMINO 2.0 WSW, CA US","country":"US","source":"NOAA 1991-2020 normals"},"US1CAED0023":{"lat":38.698,"lon":-121.0869,"name":"EL DORADO HILLS 0.9 NNW, CA US","country":"US","source":"NOAA 1991-2020 normals"},"US1CAFR0002":{"lat":36.8611,"lon":-119.6931,"name":"CLOVIS 2.9 N, CA US","country":"US","source":"NOAA 1991-2020 normals"},"US1CAFR0008":{"lat":36.5702,"lon":-120.0892,"name":"HELM 2.7 NNE, CA US","country":"US","source":"NOAA 1991-2020 normals"},"US1CAFR0014":{"lat":36.8053,"lon":-119.8222,"name":"FRESNO 2.4 NW, CA US","country":"US","source":"NOAA 1991-2020 normals"},"US1CAFR0026":{"lat":36.8768,"lon":-119.7435,"name":"FRESNO 7.2 NNE, CA US","country":"US","source":"NOAA 1991-2020 normals"},"US1CAHM0005":{"lat":40.8962,"lon":-123.9984,"name":"MCKINLEYVILLE 7.3 ESE, CA US","country":"US","source":"NOAA 1991-2020 normals"},"US1CAHM0009":{"lat":40.9778,"lon":-124.086,"name":"MCKINLEYVILLE 2.3 NE, CA US","country":"US","source":"NOAA 1991-2020 normals"},"US1CAHM0014":{"lat":40.2093,"lon":-123.8941,"name":"MIRANDA 4.1 SW, CA US","country":"US","source":"NOAA 1991-2020 normals"},"US1CAHM0022":{"lat":40.9392,"lon":-123.6236,"name":"WILLOW CREEK 4.5 NNE, CA US","country":"US","source":"NOAA 1991-2020 normals"},"US1CAHM0026":{"lat":40.4734,"lon":-123.7013,"name":"BRIDGEVILLE 5.2 ENE, CA US","country":"US","source":"NOAA 1991-2020 normals"},"US1CAHM0029":{"lat":40.5867,"lon":-124.1409,"name":"FORTUNA 0.1 NW, CA US","country":"US","source":"NOAA 1991-2020 normals"},"US1CAHM0030":{"lat":40.0775,"lon":-123.8239,"name":"GARBERVILLE 2.2 SW, CA US","country":"US","source":"NOAA 1991-2020 normals"},"US1CAHM0035":{"lat":40.7642,"lon":-124.1476,"name":"EUREKA 2.2 S, CA US","country":"US","source":"NOAA 1991-2020 normals"},"US1CAHM0038":{"lat":40.7659,"lon":-123.9985,"name":"KNEELAND 0.4 NNW, CA US","country":"US","source":"NOAA 1991-2020 normals"},"US1CAHM0044":{"lat":40.1093,"lon":-123.8519,"name":"REDWAY 1.8 WSW, CA US","country":"US","source":"NOAA 1991-2020 normals"},"US1CAHM0046":{"lat":41.0614,"lon":-124.124,"name":"TRINIDAD 1.0 ENE, CA US","country":"US","source":"NOAA 1991-2020 normals"},"US1CAHM0048":{"lat":40.9473,"lon":-123.6279,"name":"WILLOW CREEK 4.9 NNE, CA US","country":"US","source":"NOAA 1991-2020 normals"},"US1CAHM0052":{"lat":40.7109,"lon":-123.9758,"name":"KNEELAND 3.5 SSE, CA US","country":"US","source":"NOAA 1991-2020 normals"},"US1CAHM0063":{"lat":40.8724,"lon":-124.0973,"name":"ARCATA 0.9 WNW, CA US","country":"US","source":"NOAA 1991-2020 normals"},"US1CAHM0066":{"lat":40.0447,"lon":-123.959,"name":"WHITETHORN 1.7 NNW, CA US","country":"US","source":"NOAA 1991-2020 normals"},"US1CAHM0073":{"lat":40.3172,"lon":-124.2816,"name":"PETROLIA 0.6 SSE, CA US","country":"US","source":"NOAA 1991-2020 normals"},"US1CAIN0012":{"lat":37.3474,"lon":-118.4153,"name":"BISHOP 1.7 SW, CA US","country":"US","source":"NOAA 1991-2020 normals"},"US1CAIN0013":{"lat":37.3786,"lon":-118.4178,"name":"BISHOP 1.4 WNW, CA US","country":"US","source":"NOAA 1991-2020 normals"},"US1CAKG0003":{"lat":36.295,"lon":-119.7914,"name":"LEMOORE 0.3 SW, CA US","country":"US","source":"NOAA 1991-2020 normals"},"US1CAKG0004":{"lat":36.3769,"lon":-119.6527,"name":"HANFORD 3.6 N, CA US","country":"US","source":"NOAA 1991-2020 normals"},"US1CAKG0005":{"lat":36.3349,"lon":-119.6743,"name":"HANFORD 1.7 WNW, CA US","country":"US","source":"NOAA 1991-2020 normals"},"US1CAKN0001":{"lat":35.6345,"lon":-117.9782,"name":"INYOKERN 9.4 WSW, CA US","country":"US","source":"NOAA 1991-2020 normals"},"US1CAKN0013":{"lat":35.7022,"lon":-118.1739,"name":"ONYX 2.8 ENE, CA US","country":"US","source":"NOAA 1991-2020 normals"},"US1CAKN0022":{"lat":35.3311,"lon":-119.1078,"name":"BAKERSFIELD 6.1 WSW, CA US","country":"US","source":"NOAA 1991-2020 normals"},"US1CAKN0026":{"lat":35.4088,"lon":-118.5071,"name":"WALKER BASIN 0.9 E, CA US","country":"US","source":"NOAA 1991-2020 normals"},"US1CALA0003":{"lat":33.7902,"lon":-118.3369,"name":"TORRANCE 2.8 SW, CA US","country":"US","source":"NOAA 1991-2020 normals"},"US1CALA0005":{"lat":34.1874,"lon":-118.1245,"name":"ALTADENA 0.7 ESE, CA US","country":"US","source":"NOAA 1991-2020 normals"},"US1CALA0009":{"lat":34.1543,"lon":-118.42,"name":"SHERMAN OAKS 1.7 ENE, CA US","country":"US","source":"NOAA 1991-2020 normals"},"US1CALA0010":{"lat":33.9862,"lon":-118.0664,"name":"WHITTIER 2.9 WNW, CA US","country":"US","source":"NOAA 1991-2020 normals"},"US1CALA0014":{"lat":34.4268,"lon":-118.4275,"name":"CANYON COUNTRY 2.6 E, CA US","country":"US","source":"NOAA 1991-2020 normals"},"US1CALA0023":{"lat":34.0232,"lon":-117.7965,"name":"DIAMOND BAR 1.9 NNE, CA US","country":"US","source":"NOAA 1991-2020 normals"},"US1CALA0031":{"lat":34.7184,"lon":-118.0659,"name":"LANCASTER 6.5 ENE, CA US","country":"US","source":"NOAA 1991-2020 normals"},"US1CALA0036":{"lat":34.1392,"lon":-118.1161,"name":"PASADENA 2.0 SE, CA US","country":"US","source":"NOAA 1991-2020 normals"},"US1CALA0043":{"lat":34.1619,"lon":-118.1073,"name":"PASADENA 1.8 E, CA US","country":"US","source":"NOAA 1991-2020 normals"},"US1CALA0064":{"lat":34.0809,"lon":-118.2729,"name":"LOS ANGELES 2.6 NW, CA US","country":"US","source":"NOAA 1991-2020 normals"},"US1CALK0009":{"lat":39.1682,"lon":-122.9778,"name":"UPPER LAKE 3.6 W, CA US","country":"US","source":"NOAA 1991-2020 normals"},"US1CALS0001":{"lat":40.3676,"lon":-120.6739,"name":"SUSANVILLE 3.2 SSW, CA US","country":"US","source":"NOAA 1991-2020 normals"},"US1CALS0002":{"lat":40.363,"lon":-120.674,"name":"SUSANVILLE 3.5 SSW, CA US","country":"US","source":"NOAA 1991-2020 normals"},"US1CAMA0003":{"lat":37.1241,"lon":-119.761,"name":"YOSEMITE LAKES 4.7 S, CA US","country":"US","source":"NOAA 1991-2020 normals"},"US1CAMA0007":{"lat":37.247,"lon":-119.6855,"name":"COARSEGOLD 1.4 SE, CA US","country":"US","source":"NOAA 1991-2020 normals"},"US1CAMA0008":{"lat":37.116,"lon":-120.252,"name":"CHOWCHILLA 0.3 E, CA US","country":"US","source":"NOAA 1991-2020 normals"},"US1CAMA0009":{"lat":37.0367,"lon":-119.9842,"name":"LAKE MADERA 1.3 NNE, CA US","country":"US","source":"NOAA 1991-2020 normals"},"US1CAMC0004":{"lat":41.5135,"lon":-120.3648,"name":"ALTURAS 9.5 E, CA US","country":"US","source":"NOAA 1991-2020 normals"},"US1CAMD0001":{"lat":39.2206,"lon":-123.3312,"name":"UKIAH 8.4 NW, CA US","country":"US","source":"NOAA 1991-2020 normals"},"US1CAMD0003":{"lat":39.0062,"lon":-123.4084,"name":"BOONVILLE 2.2 WSW, CA US","country":"US","source":"NOAA 1991-2020 normals"},"US1CAMD0014":{"lat":39.2723,"lon":-123.1785,"name":"REDWOOD VALLEY 1.5 ENE, CA US","country":"US","source":"NOAA 1991-2020 normals"},"US1CAMD0022":{"lat":39.814,"lon":-123.5343,"name":"LAYTONVILLE 9.8 NNW, CA US","country":"US","source":"NOAA 1991-2020 normals"},"US1CAMD0026":{"lat":39.361,"lon":-123.789,"name":"CASPAR 1.4 ESE, CA US","country":"US","source":"NOAA 1991-2020 normals"},"US1CAMN0001":{"lat":38.0337,"lon":-119.1697,"name":"LEE VINING 5.9 NW, CA US","country":"US","source":"NOAA 1991-2020 normals"},"US1CAMP0001":{"lat":37.5396,"lon":-119.9876,"name":"MARIPOSA 3.7 NNW, CA US","country":"US","source":"NOAA 1991-2020 normals"},"US1CAMP0002":{"lat":37.4613,"lon":-119.7417,"name":"MARIPOSA 12.5 E, CA US","country":"US","source":"NOAA 1991-2020 normals"},"US1CAMP0003":{"lat":37.6354,"lon":-120.3273,"name":"LA GRANGE 7.8 ESE, CA US","country":"US","source":"NOAA 1991-2020 normals"},"US1CAMP0004":{"lat":37.4152,"lon":-120.0998,"name":"CATHEYS VALLEY 1.2 S, CA US","country":"US","source":"NOAA 1991-2020 normals"},"US1CAMR0002":{"lat":38.005,"lon":-122.6354,"name":"WOODACRE 0.6 SW, CA US","country":"US","source":"NOAA 1991-2020 normals"},"US1CAMR0009":{"lat":38.2475,"lon":-122.8119,"name":"PETALUMA 10.1 W, CA US","country":"US","source":"NOAA 1991-2020 normals"},"US1CAMR0025":{"lat":38.0096,"lon":-122.5801,"name":"SAN ANSELMO 2.0 NNW, CA US","country":"US","source":"NOAA 1991-2020 normals"},"US1CAMR0029":{"lat":38.041,"lon":-122.543,"name":"SAN RAFAEL 4.6 NNW, CA US","country":"US","source":"NOAA 1991-2020 normals"},"US1CAMR0030":{"lat":37.9059,"lon":-122.7009,"name":"BOLINAS 0.2 W, CA US","country":"US","source":"NOAA 1991-2020 normals"},"US1CAMR0037":{"lat":38.1104,"lon":-122.6,"name":"NOVATO 2.7 WNW, CA US","country":"US","source":"NOAA 1991-2020 normals"},"US1CAMT0003":{"lat":35.9808,"lon":-121.1174,"name":"LOCKWOOD 3.6 NW, CA US","country":"US","source":"NOAA 1991-2020 normals"},"US1CAMT0005":{"lat":36.0249,"lon":-121.1745,"name":"KING CITY 13.2 S, CA US","country":"US","source":"NOAA 1991-2020 normals"},"US1CAMT0006":{"lat":36.7764,"lon":-121.7284,"name":"CASTROVILLE 1.6 ENE, CA US","country":"US","source":"NOAA 1991-2020 normals"},"US1CAMT0017":{"lat":36.85,"lon":-121.65,"name":"AROMAS 2.0 SSW, CA US","country":"US","source":"NOAA 1991-2020 normals"},"US1CAMT0020":{"lat":36.777,"lon":-121.7269,"name":"CASTROVILLE 1.6 ENE, CA US","country":"US","source":"NOAA 1991-2020 normals"},"US1CAMT0033":{"lat":36.7282,"lon":-121.6562,"name":"SALINAS 3.2 NNW, CA US","country":"US","source":"NOAA 1991-2020 normals"},"US1CAMT0041":{"lat":36.6732,"lon":-121.7836,"name":"MARINA 0.8 SSE, CA US","country":"US","source":"NOAA 1991-2020 normals"},"US1CAMT0042":{"lat":36.3539,"lon":-121.5766,"name":"CARMEL VALLEY VILLAGE 12.2 SE, CA US","country":"US","source":"NOAA 1991-2020 normals"},"US1CANP0003":{"lat":38.5764,"lon":-122.578,"name":"CALISTOGA 0.4 SSE, CA US","country":"US","source":"NOAA 1991-2020 normals"},"US1CANV0001":{"lat":39.3067,"lon":-121.0399,"name":"NEVADA CITY 3.4 NNW, CA US","country":"US","source":"NOAA 1991-2020 normals"},"US1CANV0014":{"lat":39.0322,"lon":-121.0774,"name":"LAKE OF THE PINES 1.0 WSW, CA US","country":"US","source":"NOAA 1991-2020 normals"},"US1CANV0016":{"lat":39.1198,"lon":-121.0599,"name":"ALTA SIERRA 0.4 WSW, CA US","country":"US","source":"NOAA 1991-2020 normals"},"US1CANV0036":{"lat":39.1943,"lon":-121.0917,"name":"GRASS VALLEY 2.7 SW, CA US","country":"US","source":"NOAA 1991-2020 normals"},"US1CANV0041":{"lat":39.2384,"lon":-121.0058,"name":"NEVADA CITY 1.7 SSE, CA US","country":"US","source":"NOAA 1991-2020 normals"},"US1CAOR0006":{"lat":33.7455,"lon":-117.6199,"name":"SILVERADO 1.0 ESE, CA US","country":"US","source":"NOAA 1991-2020 normals"},"US1CAOR0016":{"lat":33.5894,"lon":-117.8652,"name":"NEWPORT BEACH 3.1 ESE, CA US","country":"US","source":"NOAA 1991-2020 normals"},"US1CAOR0019":{"lat":33.5954,"lon":-117.6442,"name":"MISSION VIEJO 1.3 SSE, CA US","country":"US","source":"NOAA 1991-2020 normals"},"US1CAOR0021":{"lat":33.8632,"lon":-117.7918,"name":"ANAHEIM 4.9 ENE, CA US","country":"US","source":"NOAA 1991-2020 normals"},"US1CAOR0027":{"lat":33.7183,"lon":-117.7721,"name":"IRVINE 4.1 NNE, CA US","country":"US","source":"NOAA 1991-2020 normals"},"US1CAOR0031":{"lat":33.8261,"lon":-117.7781,"name":"ORANGE 3.0 ENE, CA US","country":"US","source":"NOAA 1991-2020 normals"},"US1CAOR0039":{"lat":33.8521,"lon":-117.7469,"name":"ANAHEIM 7.3 E, CA US","country":"US","source":"NOAA 1991-2020 normals"},"US1CAPC0007":{"lat":38.7802,"lon":-121.3766,"name":"ROSEVILLE 4.7 WNW, CA US","country":"US","source":"NOAA 1991-2020 normals"},"US1CAPC0010":{"lat":38.8472,"lon":-121.1584,"name":"PENRYN 0.4 SE, CA US","country":"US","source":"NOAA 1991-2020 normals"},"US1CAPC0011":{"lat":39.061,"lon":-120.9911,"name":"COLFAX 3.1 SW, CA US","country":"US","source":"NOAA 1991-2020 normals"},"US1CAPC0013":{"lat":38.851,"lon":-121.123,"name":"NEWCASTLE 1.6 SSE, CA US","country":"US","source":"NOAA 1991-2020 normals"},"US1CAPC0021":{"lat":38.7399,"lon":-121.2575,"name":"ROSEVILLE 2.4 SE, CA US","country":"US","source":"NOAA 1991-2020 normals"},"US1CAPC0024":{"lat":38.9962,"lon":-120.986,"name":"APPLEGATE 0.5 SE, CA US","country":"US","source":"NOAA 1991-2020 normals"},"US1CAPC0035":{"lat":38.8088,"lon":-121.286,"name":"ROCKLIN 2.5 W, CA US","country":"US","source":"NOAA 1991-2020 normals"},"US1CARV0005":{"lat":33.7527,"lon":-116.9196,"name":"HEMET 4.1 ENE, CA US","country":"US","source":"NOAA 1991-2020 normals"},"US1CARV0008":{"lat":33.7307,"lon":-117.4276,"name":"CORONA 12.8 SE, CA US","country":"US","source":"NOAA 1991-2020 normals"},"US1CARV0015":{"lat":33.908,"lon":-117.548,"name":"NORCO 1.2 S, CA US","country":"US","source":"NOAA 1991-2020 normals"},"US1CARV0018":{"lat":33.9543,"lon":-117.012,"name":"BEAUMONT 2.5 NW, CA US","country":"US","source":"NOAA 1991-2020 normals"},"US1CARV0019":{"lat":33.9793,"lon":-117.4541,"name":"RIVERSIDE 3.8 NW, CA US","country":"US","source":"NOAA 1991-2020 normals"},"US1CARV0020":{"lat":33.9059,"lon":-117.5178,"name":"NORCO 2.3 SE, CA US","country":"US","source":"NOAA 1991-2020 normals"},"US1CARV0027":{"lat":33.5838,"lon":-117.1404,"name":"MURRIETA 4.3 ENE, CA US","country":"US","source":"NOAA 1991-2020 normals"},"US1CARV0034":{"lat":33.8209,"lon":-117.4051,"name":"PERRIS 10.6 W, CA US","country":"US","source":"NOAA 1991-2020 normals"},"US1CARV0043":{"lat":33.6081,"lon":-117.1878,"name":"MURRIETA 3.6 NNE, CA US","country":"US","source":"NOAA 1991-2020 normals"},"US1CARV0050":{"lat":33.6153,"lon":-117.0911,"name":"WINCHESTER 6.5 S, CA US","country":"US","source":"NOAA 1991-2020 normals"},"US1CASA0002":{"lat":38.635,"lon":-121.3611,"name":"SACRAMENTO 8.0 NE, CA US","country":"US","source":"NOAA 1991-2020 normals"},"US1CASA0005":{"lat":38.6429,"lon":-121.3059,"name":"CARMICHAEL 0.9 NE, CA US","country":"US","source":"NOAA 1991-2020 normals"},"US1CASA0007":{"lat":38.66,"lon":-121.1395,"name":"FOLSOM 1.2 SSE, CA US","country":"US","source":"NOAA 1991-2020 normals"},"US1CASA0012":{"lat":38.5499,"lon":-121.4374,"name":"SACRAMENTO 2.0 SE, CA US","country":"US","source":"NOAA 1991-2020 normals"},"US1CASA0029":{"lat":38.6823,"lon":-121.1375,"name":"FOLSOM 0.6 NE, CA US","country":"US","source":"NOAA 1991-2020 normals"},"US1CASA0030":{"lat":38.5753,"lon":-121.34,"name":"LA RIVIERA 1.0 NE, CA US","country":"US","source":"NOAA 1991-2020 normals"},"US1CASB0001":{"lat":34.4397,"lon":-119.8961,"name":"GOLETA 3.7 WNW, CA US","country":"US","source":"NOAA 1991-2020 normals"},"US1CASC0001":{"lat":37.3848,"lon":-122.0752,"name":"MOUNTAIN VIEW 1.2 S, CA US","country":"US","source":"NOAA 1991-2020 normals"},"US1CASC0003":{"lat":37.3647,"lon":-122.0042,"name":"SUNNYVALE 1.9 SE, CA US","country":"US","source":"NOAA 1991-2020 normals"},"US1CASC0005":{"lat":37.2324,"lon":-121.9902,"name":"MONTE SERENO 0.4 SSW, CA US","country":"US","source":"NOAA 1991-2020 normals"},"US1CASC0011":{"lat":37.2341,"lon":-121.8974,"name":"CAMBRIAN PARK 2.2 SE, CA US","country":"US","source":"NOAA 1991-2020 normals"},"US1CASC0012":{"lat":37.319,"lon":-121.7887,"name":"SAN JOSE 3.5 ENE, CA US","country":"US","source":"NOAA 1991-2020 normals"},"US1CASC0015":{"lat":37.2748,"lon":-122.0227,"name":"SARATOGA 0.5 N, CA US","country":"US","source":"NOAA 1991-2020 normals"},"US1CASC0032":{"lat":37.3185,"lon":-121.9608,"name":"SAN JOSE 6.2 W, CA US","country":"US","source":"NOAA 1991-2020 normals"},"US1CASC0040":{"lat":37.156,"lon":-121.9875,"name":"LOS GATOS 5.4 SSW, CA US","country":"US","source":"NOAA 1991-2020 normals"},"US1CASC0042":{"lat":37.3344,"lon":-122.018,"name":"SUNNYVALE 3.6 S, CA US","country":"US","source":"NOAA 1991-2020 normals"},"US1CASC0045":{"lat":37.1168,"lon":-121.6591,"name":"MORGAN HILL 1.4 SW, CA US","country":"US","source":"NOAA 1991-2020 normals"},"US1CASC0052":{"lat":37.2884,"lon":-121.8772,"name":"SAN JOSE 1.9 SW, CA US","country":"US","source":"NOAA 1991-2020 normals"},"US1CASC0057":{"lat":37.1725,"lon":-121.703,"name":"MORGAN HILL 4.5 NW, CA US","country":"US","source":"NOAA 1991-2020 normals"},"US1CASD0001":{"lat":33.1472,"lon":-117.1316,"name":"SAN MARCOS 2.5 ENE, CA US","country":"US","source":"NOAA 1991-2020 normals"},"US1CASD0004":{"lat":33.27,"lon":-117.2663,"name":"OCEANSIDE 8.4NE, CA US","country":"US","source":"NOAA 1991-2020 normals"},"US1CASD0007":{"lat":33.0499,"lon":-117.2368,"name":"ENCINITAS 3.34ENE, CA US","country":"US","source":"NOAA 1991-2020 normals"},"US1CASD0008":{"lat":33.1852,"lon":-117.1282,"name":"ESCONDIDO 5.2NNW, CA US","country":"US","source":"NOAA 1991-2020 normals"},"US1CASD0009":{"lat":32.7907,"lon":-116.987,"name":"EL CAJON 1.5WSW, CA US","country":"US","source":"NOAA 1991-2020 normals"},"US1CASD0010":{"lat":33.1055,"lon":-117.0482,"name":"ESCONDIDO 2.5 SSE, CA US","country":"US","source":"NOAA 1991-2020 normals"},"US1CASD0011":{"lat":33.0757,"lon":-117.292,"name":"ENCINITAS 2.7N, CA US","country":"US","source":"NOAA 1991-2020 normals"},"US1CASD0012":{"lat":32.9956,"lon":-117.0044,"name":"POWAY 3.2NE, CA US","country":"US","source":"NOAA 1991-2020 normals"},"US1CASD0014":{"lat":33.2225,"lon":-116.3904,"name":"BORREGO SPRINGS 2.4 WSW, CA US","country":"US","source":"NOAA 1991-2020 normals"},"US1CASD0018":{"lat":32.6381,"lon":-116.9753,"name":"CHULA VISTA 6.3E, CA US","country":"US","source":"NOAA 1991-2020 normals"},"US1CASD0022":{"lat":32.9491,"lon":-117.0588,"name":"POWAY 1.4SW, CA US","country":"US","source":"NOAA 1991-2020 normals"},"US1CASD0023":{"lat":33.0267,"lon":-117.2712,"name":"CARDIFF BY THE SEA 0.2 E, CA US","country":"US","source":"NOAA 1991-2020 normals"},"US1CASD0024":{"lat":32.6168,"lon":-117.0519,"name":"CHULA VISTA 2.5SE, CA US","country":"US","source":"NOAA 1991-2020 normals"},"US1CASD0027":{"lat":32.7465,"lon":-117.1098,"name":"SAN DIEGO 3.5NE, CA US","country":"US","source":"NOAA 1991-2020 normals"},"US1CASD0029":{"lat":32.8057,"lon":-117.0732,"name":"SAN DIEGO 7.9NE, CA US","country":"US","source":"NOAA 1991-2020 normals"},"US1CASD0035":{"lat":33.0184,"lon":-117.0666,"name":"RANCHO BERNARDO 0.5SE, CA US","country":"US","source":"NOAA 1991-2020 normals"},"US1CASD0047":{"lat":32.6044,"lon":-117.0508,"name":"CHULA VISTA 3.1SE, CA US","country":"US","source":"NOAA 1991-2020 normals"},"US1CASD0049":{"lat":32.8168,"lon":-117.0586,"name":"SAN DIEGO 9NE, CA US","country":"US","source":"NOAA 1991-2020 normals"},"US1CASD0053":{"lat":33.0158,"lon":-116.8068,"name":"SAN DIEGO COUNTRY ESTATES 1.5, CA US","country":"US","source":"NOAA 1991-2020 normals"},"US1CASD0054":{"lat":32.8538,"lon":-116.6212,"name":"DESCANSO 0.3 WNW, CA US","country":"US","source":"NOAA 1991-2020 normals"},"US1CASD0055":{"lat":32.7348,"lon":-117.2447,"name":"SAN DIEGO 5.2WNW, CA US","country":"US","source":"NOAA 1991-2020 normals"},"US1CASD0057":{"lat":33.1862,"lon":-117.2311,"name":"VISTA 1.2SE, CA US","country":"US","source":"NOAA 1991-2020 normals"},"US1CASD0060":{"lat":32.8428,"lon":-117.2208,"name":"SAN DIEGO 9.5 NNW, CA US","country":"US","source":"NOAA 1991-2020 normals"},"US1CASD0074":{"lat":33.0139,"lon":-117.1062,"name":"RANCHO BERNARDO 1.9WSW, CA US","country":"US","source":"NOAA 1991-2020 normals"},"US1CASD0080":{"lat":32.9173,"lon":-117.1626,"name":"SAN DIEGO 13.9N, CA US","country":"US","source":"NOAA 1991-2020 normals"},"US1CASD0086":{"lat":33.1658,"lon":-117.3307,"name":"CARLSBAD 1.3ENE, CA US","country":"US","source":"NOAA 1991-2020 normals"},"US1CASD0090":{"lat":32.7698,"lon":-116.9788,"name":"LA MESA 2.6E, CA US","country":"US","source":"NOAA 1991-2020 normals"},"US1CASD0097":{"lat":33.0794,"lon":-117.2419,"name":"CARLSBAD 8.3SE, CA US","country":"US","source":"NOAA 1991-2020 normals"},"US1CASD0099":{"lat":32.7797,"lon":-116.9103,"name":"EL CAJON 3.2ESE, CA US","country":"US","source":"NOAA 1991-2020 normals"},"US1CASD0101":{"lat":33.3108,"lon":-117.0409,"name":"VALLEY CENTER 6.4N, CA US","country":"US","source":"NOAA 1991-2020 normals"},"US1CASD0104":{"lat":32.8651,"lon":-116.6175,"name":"DESCANSO 0.8 N, CA US","country":"US","source":"NOAA 1991-2020 normals"},"US1CASD0105":{"lat":32.6447,"lon":-116.3478,"name":"BOULEVARD 4.4 WSW, CA US","country":"US","source":"NOAA 1991-2020 normals"},"US1CASD0110":{"lat":32.7597,"lon":-117.0281,"name":"LA MESA 0.9 SW, CA US","country":"US","source":"NOAA 1991-2020 normals"},"US1CASD0115":{"lat":32.7502,"lon":-117.2456,"name":"SAN DIEGO 7.8 SW, CA US","country":"US","source":"NOAA 1991-2020 normals"},"US1CASD0120":{"lat":32.8257,"lon":-117.1993,"name":"N CLAIREMONT 0.6SSE, CA US","country":"US","source":"NOAA 1991-2020 normals"},"US1CASD0128":{"lat":33.1227,"lon":-117.2278,"name":"SAN MARCOS 3.3 WSW, CA US","country":"US","source":"NOAA 1991-2020 normals"},"US1CASD0130":{"lat":33.1934,"lon":-116.2786,"name":"BORREGO SPRINGS 7.1SE, CA US","country":"US","source":"NOAA 1991-2020 normals"},"US1CASD0131":{"lat":32.7646,"lon":-117.0689,"name":"MID-CITY SAN DIEGO 0.5W, CA US","country":"US","source":"NOAA 1991-2020 normals"},"US1CASD0132":{"lat":32.9083,"lon":-116.6227,"name":"DESCANSO 3.7N, CA US","country":"US","source":"NOAA 1991-2020 normals"},"US1CASD0133":{"lat":32.7813,"lon":-117.1867,"name":"CLAIREMONT 3.7SSE, CA US","country":"US","source":"NOAA 1991-2020 normals"},"US1CASD0148":{"lat":33.1311,"lon":-117.1081,"name":"ESCONDIDO 2.2 W, CA US","country":"US","source":"NOAA 1991-2020 normals"},"US1CASD0180":{"lat":32.8153,"lon":-116.9269,"name":"EL CAJON 2.2 ENE, CA US","country":"US","source":"NOAA 1991-2020 normals"},"US1CASF0004":{"lat":37.765,"lon":-122.4348,"name":"SAN FRANCISCO 1.1 SW, CA US","country":"US","source":"NOAA 1991-2020 normals"},"US1CASH0006":{"lat":40.5239,"lon":-121.7957,"name":"SHINGLETOWN 5.3 ENE, CA US","country":"US","source":"NOAA 1991-2020 normals"},"US1CASH0010":{"lat":40.6721,"lon":-122.2913,"name":"REDDING 7.9 NNE, CA US","country":"US","source":"NOAA 1991-2020 normals"},"US1CASH0011":{"lat":40.6261,"lon":-122.3585,"name":"REDDING 3.7 N, CA US","country":"US","source":"NOAA 1991-2020 normals"},"US1CASH0051":{"lat":40.5181,"lon":-122.3692,"name":"REDDING 3.8 S, CA US","country":"US","source":"NOAA 1991-2020 normals"},"US1CASH0056":{"lat":40.6024,"lon":-122.4007,"name":"REDDING 2.8 NW, CA US","country":"US","source":"NOAA 1991-2020 normals"},"US1CASH0068":{"lat":40.5446,"lon":-122.1734,"name":"MILLVILLE 3.6 SW, CA US","country":"US","source":"NOAA 1991-2020 normals"},"US1CASH0071":{"lat":40.4319,"lon":-121.9958,"name":"PAYNES CREEK 7.9 NNW, CA US","country":"US","source":"NOAA 1991-2020 normals"},"US1CASJ0001":{"lat":38.0627,"lon":-121.0079,"name":"LINDEN 5.8 ENE, CA US","country":"US","source":"NOAA 1991-2020 normals"},"US1CASJ0004":{"lat":38.0381,"lon":-121.2547,"name":"STOCKTON 5.8 NNE, CA US","country":"US","source":"NOAA 1991-2020 normals"},"US1CASJ0005":{"lat":38.136,"lon":-121.3044,"name":"LODI 1.0 NNW, CA US","country":"US","source":"NOAA 1991-2020 normals"},"US1CASJ0011":{"lat":38.0011,"lon":-121.3665,"name":"STOCKTON 2.5 NE, CA US","country":"US","source":"NOAA 1991-2020 normals"},"US1CASK0009":{"lat":41.2688,"lon":-123.3336,"name":"FORKS OF SALMON 1.0 NW, CA US","country":"US","source":"NOAA 1991-2020 normals"},"US1CASK0010":{"lat":41.9633,"lon":-121.923,"name":"DORRIS 0.2 SW, CA US","country":"US","source":"NOAA 1991-2020 normals"},"US1CASK0020":{"lat":41.6323,"lon":-122.5373,"name":"GRENADA 0.8 SW, CA US","country":"US","source":"NOAA 1991-2020 normals"},"US1CASM0001":{"lat":37.6121,"lon":-122.4825,"name":"PACIFICA 0.3 W, CA US","country":"US","source":"NOAA 1991-2020 normals"},"US1CASM0006":{"lat":37.5488,"lon":-122.2587,"name":"FOSTER CITY 1.3 SW, CA US","country":"US","source":"NOAA 1991-2020 normals"},"US1CASM0007":{"lat":37.463,"lon":-122.4408,"name":"HALF MOON BAY 0.5 SSW, CA US","country":"US","source":"NOAA 1991-2020 normals"},"US1CASM0015":{"lat":37.5185,"lon":-122.3432,"name":"SAN MATEO 3.4 SSW, CA US","country":"US","source":"NOAA 1991-2020 normals"},"US1CASM0016":{"lat":37.4777,"lon":-122.4454,"name":"HALF MOON BAY 0.7 NW, CA US","country":"US","source":"NOAA 1991-2020 normals"},"US1CASM0022":{"lat":37.3754,"lon":-122.2637,"name":"WOODSIDE 3.4 S, CA US","country":"US","source":"NOAA 1991-2020 normals"},"US1CASM0032":{"lat":37.5684,"lon":-122.3012,"name":"SAN MATEO 0.8 NE, CA US","country":"US","source":"NOAA 1991-2020 normals"},"US1CASN0029":{"lat":38.781,"lon":-122.963,"name":"CLOVERDALE 3.2 ESE, CA US","country":"US","source":"NOAA 1991-2020 normals"},"US1CASN0049":{"lat":38.3842,"lon":-122.8191,"name":"SEBASTOPOL 1.1 SSE, CA US","country":"US","source":"NOAA 1991-2020 normals"},"US1CASN0061":{"lat":38.464,"lon":-122.715,"name":"SANTA ROSA 1.3 NW, CA US","country":"US","source":"NOAA 1991-2020 normals"},"US1CASN0062":{"lat":38.2262,"lon":-122.6391,"name":"PETALUMA 1.3 SW, CA US","country":"US","source":"NOAA 1991-2020 normals"},"US1CASN0071":{"lat":38.3392,"lon":-122.7113,"name":"ROHNERT PARK 0.9 SW, CA US","country":"US","source":"NOAA 1991-2020 normals"},"US1CASN0074":{"lat":38.6476,"lon":-122.9207,"name":"HEALDSBURG 3.7 WNW, CA US","country":"US","source":"NOAA 1991-2020 normals"},"US1CASN0080":{"lat":38.3778,"lon":-122.5343,"name":"GLEN ELLEN 1.5 N, CA US","country":"US","source":"NOAA 1991-2020 normals"},"US1CASN0088":{"lat":38.3653,"lon":-122.9738,"name":"OCCIDENTAL 2.8 SW, CA US","country":"US","source":"NOAA 1991-2020 normals"},"US1CASN0089":{"lat":38.7839,"lon":-122.9628,"name":"HEALDSBURG 12.6 NNW, CA US","country":"US","source":"NOAA 1991-2020 normals"},"US1CASN0090":{"lat":38.4733,"lon":-122.8974,"name":"FORESTVILLE 0.7 SW, CA US","country":"US","source":"NOAA 1991-2020 normals"},"US1CASN0098":{"lat":38.5319,"lon":-123.1886,"name":"CAZADERO 5.6 W, CA US","country":"US","source":"NOAA 1991-2020 normals"},"US1CASN0112":{"lat":38.4699,"lon":-122.7333,"name":"SANTA ROSA 2.3 NW, CA US","country":"US","source":"NOAA 1991-2020 normals"},"US1CASN0116":{"lat":38.4492,"lon":-122.6691,"name":"SANTA ROSA 1.7 E, CA US","country":"US","source":"NOAA 1991-2020 normals"},"US1CASO0007":{"lat":38.2215,"lon":-122.143,"name":"FAIRFIELD 5.9 WSW, CA US","country":"US","source":"NOAA 1991-2020 normals"},"US1CASR0009":{"lat":34.5043,"lon":-117.1808,"name":"APPLE VALLEY 2.6 SE, CA US","country":"US","source":"NOAA 1991-2020 normals"},"US1CASR0014":{"lat":34.0973,"lon":-116.3178,"name":"JOSHUA TREE 2.0 S, CA US","country":"US","source":"NOAA 1991-2020 normals"},"US1CASR0026":{"lat":34.3725,"lon":-117.3404,"name":"HESPERIA 3.9 SW, CA US","country":"US","source":"NOAA 1991-2020 normals"},"US1CASR0029":{"lat":34.1442,"lon":-117.381,"name":"RIALTO 2.1 N, CA US","country":"US","source":"NOAA 1991-2020 normals"},"US1CASR0034":{"lat":34.1223,"lon":-117.5977,"name":"RANCHO CUCAMONGA 1.6 W, CA US","country":"US","source":"NOAA 1991-2020 normals"},"US1CASR0036":{"lat":34.2712,"lon":-116.9383,"name":"FAWNSKIN 0.3 NE, CA US","country":"US","source":"NOAA 1991-2020 normals"},"US1CASR0046":{"lat":34.1269,"lon":-116.3175,"name":"JOSHUA TREE 0.0 ESE, CA US","country":"US","source":"NOAA 1991-2020 normals"},"US1CASR0053":{"lat":34.1443,"lon":-117.6491,"name":"UPLAND 1.8 NNE, CA US","country":"US","source":"NOAA 1991-2020 normals"},"US1CASR0055":{"lat":34.195,"lon":-117.3502,"name":"SAN BERNARDINO 5.1 NW, CA US","country":"US","source":"NOAA 1991-2020 normals"},"US1CASR0058":{"lat":34.2468,"lon":-117.1713,"name":"LAKE ARROWHEAD 1.5 SE, CA US","country":"US","source":"NOAA 1991-2020 normals"},"US1CASR0072":{"lat":34.1431,"lon":-116.0632,"name":"TWENTYNINE PALMS 0.3 NNE, CA US","country":"US","source":"NOAA 1991-2020 normals"},"US1CASS0001":{"lat":37.7892,"lon":-120.7518,"name":"KNIGHTS FERRY 5.2 WSW, CA US","country":"US","source":"NOAA 1991-2020 normals"},"US1CASS0006":{"lat":37.6931,"lon":-121.0565,"name":"MODESTO 4.1 NW, CA US","country":"US","source":"NOAA 1991-2020 normals"},"US1CAST0005":{"lat":36.8422,"lon":-121.365,"name":"HOLLISTER 2.1 ESE, CA US","country":"US","source":"NOAA 1991-2020 normals"},"US1CASZ0021":{"lat":37.1693,"lon":-122.1641,"name":"BOULDER CREEK 3.0 NW, CA US","country":"US","source":"NOAA 1991-2020 normals"},"US1CASZ0024":{"lat":37.1051,"lon":-122.0468,"name":"FELTON 4.5 NNE, CA US","country":"US","source":"NOAA 1991-2020 normals"},"US1CASZ0028":{"lat":37.0022,"lon":-121.9363,"name":"SOQUEL 0.8 NE, CA US","country":"US","source":"NOAA 1991-2020 normals"},"US1CASZ0036":{"lat":37.1953,"lon":-122.1406,"name":"BOULDER CREEK 4.1 N, CA US","country":"US","source":"NOAA 1991-2020 normals"},"US1CASZ0051":{"lat":36.9557,"lon":-121.8217,"name":"WATSONVILLE 3.9 NW, CA US","country":"US","source":"NOAA 1991-2020 normals"},"US1CATH0029":{"lat":40.3579,"lon":-122.3416,"name":"COTTONWOOD 3.9 SW, CA US","country":"US","source":"NOAA 1991-2020 normals"},"US1CATL0011":{"lat":36.4584,"lon":-118.8858,"name":"THREE RIVERS 1.7 NE, CA US","country":"US","source":"NOAA 1991-2020 normals"},"US1CATL0017":{"lat":36.1113,"lon":-118.8248,"name":"SPRINGVILLE 1.4 SSW, CA US","country":"US","source":"NOAA 1991-2020 normals"},"US1CATY0011":{"lat":40.9826,"lon":-122.6965,"name":"TRINITY CENTER 0.6 ESE, CA US","country":"US","source":"NOAA 1991-2020 normals"},